[
  {
    "id": 3,
    "brand": "ORLEN",
    "name": "7128 ORLEN - Chrzanow",
    "lat": "50.127185",
    "lng": "19.368022",
    "address": "Kroczymiech 22",
    "city": "Chrzanow",
    "postcode": "32-500",
    "telephone": "326 240 781"
  },
  {
    "id": 4,
    "brand": "ORLEN",
    "name": "7566 ORLEN - Barwice",
    "lat": "53.742506",
    "lng": "16.351197",
    "address": "Jana Pawla II 1",
    "city": "Barwice",
    "postcode": "78-460",
    "telephone": "94 712 84 84"
  },
  {
    "id": 9,
    "brand": "ORLEN",
    "name": "7615 ORLEN - Krakow",
    "lat": "50.073263",
    "lng": "19.808696",
    "address": "Olszanicka 174",
    "city": "Krakow",
    "postcode": "30-241",
    "telephone": "513 933 437"
  },
  {
    "id": 10,
    "brand": "ORLEN",
    "name": "7311 ORLEN - Jordanow",
    "lat": "49.654785",
    "lng": "19.815228",
    "address": "3 Maja 73",
    "city": "Jordanow",
    "postcode": "34-785",
    "telephone": "182 675 714"
  },
  {
    "id": 13,
    "brand": "ORLEN",
    "name": "7258 ORLEN - Mielec",
    "lat": "50.287554",
    "lng": "21.403151",
    "address": "Legionow 80",
    "city": "Mielec",
    "postcode": "39-300",
    "telephone": "175 830 515"
  },
  {
    "id": 14,
    "brand": "ORLEN",
    "name": "7152 ORLEN - Marki",
    "lat": "52.365365",
    "lng": "21.141927",
    "address": "Majora Billa 1",
    "city": "Marki",
    "postcode": "05-261",
    "telephone": "227 811 455"
  },
  {
    "id": 15,
    "brand": "ORLEN",
    "name": "7589 ORLEN - Leszno",
    "lat": "51.843150",
    "lng": "16.600030",
    "address": "Luksemburska 1",
    "city": "Leszno",
    "postcode": "64-100",
    "telephone": "517 483 878"
  },
  {
    "id": 16,
    "brand": "ORLEN",
    "name": "7599 ORLEN - Smigiel",
    "lat": "52.004847",
    "lng": "16.526373",
    "address": "Leszczynska 20A",
    "city": "Smigiel",
    "postcode": "64-030",
    "telephone": "690 671 745"
  },
  {
    "id": 20,
    "brand": "ORLEN",
    "name": "7180 ORLEN - Frydrychowo",
    "lat": "53.160811",
    "lng": "18.916797",
    "address": "Frydrychowo 56",
    "city": "Frydrychowo",
    "postcode": "87-410",
    "telephone": "(056) 6841862"
  },
  {
    "id": 22,
    "brand": "ORLEN",
    "name": "7221 ORLEN - Leokadiow",
    "lat": "51.396400",
    "lng": "21.808200",
    "address": "- 10B",
    "city": "Leokadiow",
    "postcode": "24-100",
    "telephone": "818 805 239"
  },
  {
    "id": 25,
    "brand": "ORLEN",
    "name": "7175 ORLEN - Ozorkow",
    "lat": "51.978169",
    "lng": "19.274503",
    "address": "Gebicka 70/72",
    "city": "Ozorkow",
    "postcode": "95-035",
    "telephone": "427 182 093"
  },
  {
    "id": 27,
    "brand": "ORLEN",
    "name": "7378 ORLEN - Suchorze",
    "lat": "54.277453",
    "lng": "17.096426",
    "address": "Slawienska 2",
    "city": "Suchorze",
    "postcode": "77-233",
    "telephone": "598 108 332"
  },
  {
    "id": 29,
    "brand": "ORLEN",
    "name": "7564 ORLEN - Ostrow Wielkopolski",
    "lat": "51.655922",
    "lng": "17.842577",
    "address": "Ofierskiego 3",
    "city": "Ostrow Wielkopolski",
    "postcode": "63-400",
    "telephone": "625 943 020"
  },
  {
    "id": 30,
    "brand": "ORLEN",
    "name": "7621 ORLEN - Przywidz",
    "lat": "54.189433",
    "lng": "18.306968",
    "address": " Kaszubska  2",
    "city": "Przywidz",
    "postcode": "83-047",
    "telephone": "(58 ) 682 52 74"
  },
  {
    "id": 31,
    "brand": "ORLEN",
    "name": "7243 ORLEN - Wyszkow",
    "lat": "52.585620",
    "lng": "21.464716",
    "address": "Warszawska 1",
    "city": "Wyszkow",
    "postcode": "07-200",
    "telephone": "297 425 675"
  },
  {
    "id": 34,
    "brand": "ORLEN",
    "name": "7409 ORLEN - Leszno",
    "lat": "51.843984",
    "lng": "16.562383",
    "address": "Kilinskiego 1A",
    "city": "Leszno",
    "postcode": "64-100",
    "telephone": "517 259 330"
  },
  {
    "id": 35,
    "brand": "ORLEN",
    "name": "7597 ORLEN - Radomsko",
    "lat": "51.053968",
    "lng": "19.440721",
    "address": "Krakowska 139/141",
    "city": "Radomsko",
    "postcode": "97-500",
    "telephone": "44 683 40 07"
  },
  {
    "id": 36,
    "brand": "ORLEN",
    "name": "7055 ORLEN - Chojnice",
    "lat": "53.708280",
    "lng": "17.579557",
    "address": "Koscierska 19a",
    "city": "Chojnice",
    "postcode": "89-600",
    "telephone": "(052)3967453"
  },
  {
    "id": 37,
    "brand": "ORLEN",
    "name": "7143 ORLEN - Zmigrod",
    "lat": "51.480186",
    "lng": "16.914816",
    "address": "Parkowa 4a",
    "city": "Zmigrod",
    "postcode": "55-055",
    "telephone": "713 853 111"
  },
  {
    "id": 39,
    "brand": "ORLEN",
    "name": "7561 ORLEN - Nowiny Brdowskie",
    "lat": "52.338951",
    "lng": "18.720467",
    "address": "Rondo DW263 i DW270  - - ",
    "city": "Nowiny Brdowskie",
    "postcode": "62-620",
    "telephone": "063  271 33 01"
  },
  {
    "id": 41,
    "brand": "ORLEN",
    "name": "7588 ORLEN - Wolka",
    "lat": "52.318843",
    "lng": "17.780083",
    "address": "- 38A",
    "city": "Wolka",
    "postcode": "62-420",
    "telephone": "695-7588-08"
  },
  {
    "id": 44,
    "brand": "ORLEN",
    "name": "7047 ORLEN - Podlopien k/Tymarku",
    "lat": "49.723574",
    "lng": "20.279423",
    "address": "Podlopien 303",
    "city": "Podlopien",
    "postcode": "34-650",
    "telephone": "183 330 133"
  },
  {
    "id": 47,
    "brand": "ORLEN",
    "name": "7177 ORLEN - Legionowo",
    "lat": "52.392267",
    "lng": "20.934062",
    "address": "Warszawska 60",
    "city": "Legionowo",
    "postcode": "05-120",
    "telephone": "227 320 010"
  },
  {
    "id": 50,
    "brand": "ORLEN",
    "name": "7319 ORLEN - Jalowesy",
    "lat": "50.795925",
    "lng": "21.324605",
    "address": "- 82",
    "city": "Jalowesy",
    "postcode": "27-500",
    "telephone": "(15 ) 868 42 46"
  },
  {
    "id": 51,
    "brand": "ORLEN",
    "name": "7313 ORLEN - Budziszewice",
    "lat": "51.668200",
    "lng": "19.932100",
    "address": "Brzezinska 3A",
    "city": "Budziszewice",
    "postcode": "97-212",
    "telephone": "(44) 7102356"
  },
  {
    "id": 52,
    "brand": "ORLEN",
    "name": "7046 ORLEN - Ilinko",
    "lat": "52.616275",
    "lng": "20.333719",
    "address": "Ilinko 3",
    "city": "Ilinko",
    "postcode": "09-100",
    "telephone": "236 625 126"
  },
  {
    "id": 54,
    "brand": "ORLEN",
    "name": "7624 ORLEN - Mecina",
    "lat": "49.681975",
    "lng": "20.530599",
    "address": "- 22",
    "city": "Mecina",
    "postcode": "34-654",
    "telephone": "694 672 182"
  },
  {
    "id": 55,
    "brand": "ORLEN",
    "name": "7278 ORLEN - Poddebice",
    "lat": "51.889953",
    "lng": "18.981325",
    "address": "Lodzka 108",
    "city": "Poddebice",
    "postcode": "99-200",
    "telephone": "436 783 665"
  },
  {
    "id": 57,
    "brand": "ORLEN",
    "name": "7236 ORLEN - Strzelin",
    "lat": "50.776877",
    "lng": "17.059726",
    "address": "Zabkowicka 32",
    "city": "Strzelin",
    "postcode": "57-100",
    "telephone": "713 927 829"
  },
  {
    "id": 58,
    "brand": "ORLEN",
    "name": "7201 ORLEN - Scieki",
    "lat": "51.772866",
    "lng": "20.202972",
    "address": "Scieki 135",
    "city": "Rawa Mazowiecka",
    "postcode": "96-200",
    "telephone": "46 814 47 94"
  },
  {
    "id": 62,
    "brand": "ORLEN",
    "name": "7525 ORLEN - Milki",
    "lat": "53.951503",
    "lng": "21.866569",
    "address": "Gizycka 6A",
    "city": "Milki",
    "postcode": "11-513",
    "telephone": "874 211 030"
  },
  {
    "id": 66,
    "brand": "ORLEN",
    "name": "7368 ORLEN - Wola Gutowska",
    "lat": "51.519982",
    "lng": "21.103701",
    "address": "Wola Gutowska 8",
    "city": "Wola Gutowska",
    "postcode": "26-660",
    "telephone": "483 213 095"
  },
  {
    "id": 69,
    "brand": "ORLEN",
    "name": "7369 ORLEN - Torun",
    "lat": "53.032200",
    "lng": "18.703510",
    "address": "Slupska 1",
    "city": "Torun",
    "postcode": "87-100",
    "telephone": "56 639 01 22"
  },
  {
    "id": 70,
    "brand": "ORLEN",
    "name": "7204 ORLEN - Ustron",
    "lat": "49.724500",
    "lng": "18.794500",
    "address": "Katowicka 7",
    "city": "Ustron",
    "postcode": "43-450",
    "telephone": "338 545 610"
  },
  {
    "id": 73,
    "brand": "ORLEN",
    "name": "7179 ORLEN - Gorzow Wielkopolski",
    "lat": "52.766038",
    "lng": "15.281581",
    "address": "Franciszka Walczaka 109",
    "city": "Gorzow Wielkopolski",
    "postcode": "66-400",
    "telephone": "(095) 7229000"
  },
  {
    "id": 77,
    "brand": "ORLEN",
    "name": "7619 ORLEN - Radom",
    "lat": "51.381570",
    "lng": "21.129987",
    "address": "Wierzbicka  49",
    "city": "Radom",
    "postcode": "26-600",
    "telephone": "48 668086020"
  },
  {
    "id": 78,
    "brand": "ORLEN",
    "name": "7253 ORLEN - Lublin",
    "lat": "51.246113",
    "lng": "22.625309",
    "address": "Melgiewska 39",
    "city": "Lublin",
    "postcode": "20-433",
    "telephone": "817 460 233"
  },
  {
    "id": 80,
    "brand": "ORLEN",
    "name": "7251 ORLEN - Pogorzela",
    "lat": "51.828090",
    "lng": "17.228826",
    "address": "Armii Poznan 2",
    "city": "Pogorzela",
    "postcode": "63-860",
    "telephone": "655 734 609"
  },
  {
    "id": 81,
    "brand": "ORLEN",
    "name": "7496 ORLEN - Zakrzewo",
    "lat": "52.472639",
    "lng": "19.306283",
    "address": "Zakrzewo Parcele 36",
    "city": "Zakrzewo",
    "postcode": "87-821",
    "telephone": "800 100 110"
  },
  {
    "id": 83,
    "brand": "ORLEN",
    "name": "7444 ORLEN - Kazimierz Biskupi",
    "lat": "52.312817",
    "lng": "18.181680",
    "address": "Warszawska 13",
    "city": "Kazimierz Biskupi",
    "postcode": "62-530",
    "telephone": "63 233 50 10"
  },
  {
    "id": 86,
    "brand": "ORLEN",
    "name": "7405 ORLEN - Bialowieza",
    "lat": "52.693613",
    "lng": "23.833908",
    "address": "Palacowa 73",
    "city": "Bialowieza",
    "postcode": "17-230",
    "telephone": "(85/) 681 20 97"
  },
  {
    "id": 88,
    "brand": "ORLEN",
    "name": "7340 ORLEN - Pepowo",
    "lat": "51.755716",
    "lng": "17.116920",
    "address": "Dworcowa 3",
    "city": "Pepowo",
    "postcode": "63-830",
    "telephone": "655 736 138"
  },
  {
    "id": 89,
    "brand": "ORLEN",
    "name": "7355 ORLEN - Braniewo",
    "lat": "54.389661",
    "lng": "19.834539",
    "address": "Krolewiecka 60",
    "city": "Braniewo",
    "postcode": "14-500",
    "telephone": "552 435 642"
  },
  {
    "id": 90,
    "brand": "ORLEN",
    "name": "7515 ORLEN - Opole Wrzoski",
    "lat": "50.687364",
    "lng": "17.811906",
    "address": "Wroclawska 326",
    "city": "Opole",
    "postcode": "45-960",
    "telephone": "774 351 370"
  },
  {
    "id": 91,
    "brand": "ORLEN",
    "name": "7505 ORLEN - Czerwin",
    "lat": "52.942419",
    "lng": "21.760944",
    "address": "Przemyslowa 1",
    "city": "Czerwin",
    "postcode": "07-407",
    "telephone": "297 170 428"
  },
  {
    "id": 94,
    "brand": "ORLEN",
    "name": "7068 ORLEN - Bulowice",
    "lat": "49.880028",
    "lng": "19.259294",
    "address": "Bielska 224",
    "city": "Bulowice",
    "postcode": "32-652",
    "telephone": "338 455 959"
  },
  {
    "id": 97,
    "brand": "ORLEN",
    "name": "7112 ORLEN - Wolomin",
    "lat": "52.344475",
    "lng": "21.227519",
    "address": "Armii Krajowej 20",
    "city": "Wolomin",
    "postcode": "05-200",
    "telephone": "227 878 814"
  },
  {
    "id": 98,
    "brand": "ORLEN",
    "name": "7105 ORLEN - Koniecpol",
    "lat": "50.774644",
    "lng": "19.695294",
    "address": "Armii Krajowej 7/11",
    "city": "Koniecpol",
    "postcode": "42-230",
    "telephone": "343 552 331"
  },
  {
    "id": 99,
    "brand": "ORLEN",
    "name": "7591 ORLEN - Zielona Gora",
    "lat": "51.935250",
    "lng": "15.501538",
    "address": "Fabryczna 3",
    "city": "Zielona Gora",
    "postcode": "65-001",
    "telephone": "600 399 025"
  },
  {
    "id": 102,
    "brand": "ORLEN",
    "name": "7183 ORLEN - Osiek",
    "lat": "50.515878",
    "lng": "21.436054",
    "address": "Polaniecka 26",
    "city": "Osiek",
    "postcode": "28-221",
    "telephone": "(015) 8671177"
  },
  {
    "id": 104,
    "brand": "ORLEN",
    "name": "7613 ORLEN - Krapiel",
    "lat": "53.290617",
    "lng": "15.234818",
    "address": "Krapiel 55",
    "city": "Pezino",
    "postcode": "73-131",
    "telephone": "538 199 188"
  },
  {
    "id": 105,
    "brand": "ORLEN",
    "name": "7583 ORLEN - Skarzysko-Kamienna",
    "lat": "51.111714",
    "lng": "20.877281",
    "address": "Towarowa 8",
    "city": "Skarzysko-Kamienna",
    "postcode": "26-110",
    "telephone": "412 511 817"
  },
  {
    "id": 106,
    "brand": "ORLEN",
    "name": "7321 ORLEN - Bobowa",
    "lat": "49.713614",
    "lng": "20.954178",
    "address": "- 74",
    "city": "Bobowa",
    "postcode": "38-350",
    "telephone": "183 514 337"
  },
  {
    "id": 107,
    "brand": "ORLEN",
    "name": "7252 ORLEN - Koluszki",
    "lat": "51.737400",
    "lng": "19.821900",
    "address": "Partyzantow 8A",
    "city": "Koluszki",
    "postcode": "95-040",
    "telephone": "695 352 432"
  },
  {
    "id": 108,
    "brand": "ORLEN",
    "name": "7579 ORLEN - Szczecin",
    "lat": "53.383037",
    "lng": "14.671437",
    "address": "Struga 61",
    "city": "Szczecin",
    "postcode": "70-784",
    "telephone": "695 196 031"
  },
  {
    "id": 109,
    "brand": "ORLEN",
    "name": "7360 ORLEN - Nowy Wisnicz",
    "lat": "49.926060",
    "lng": "20.453149",
    "address": "Bochenska 26",
    "city": "Nowy Wisnicz",
    "postcode": "32-720",
    "telephone": "146 100 175"
  },
  {
    "id": 111,
    "brand": "ORLEN",
    "name": "7423 ORLEN - Torun",
    "lat": "53.037381",
    "lng": "18.679789",
    "address": "Curii Sklodowskiej 95",
    "city": "Torun",
    "postcode": "87-100",
    "telephone": "(56) 6231336"
  },
  {
    "id": 115,
    "brand": "ORLEN",
    "name": "7146 ORLEN - Sufczyn",
    "lat": "49.964772",
    "lng": "20.741686",
    "address": "Sufczyn 483",
    "city": "Sufczyn",
    "postcode": "32-852",
    "telephone": "146 650 213"
  },
  {
    "id": 116,
    "brand": "ORLEN",
    "name": "7363 ORLEN - Malanow",
    "lat": "51.958118",
    "lng": "18.403035",
    "address": "Turecka 67",
    "city": "Malanow",
    "postcode": "62-709",
    "telephone": "786 956 518"
  },
  {
    "id": 117,
    "brand": "ORLEN",
    "name": "7550 ORLEN - Drobin",
    "lat": "52.731136",
    "lng": "19.979136",
    "address": "Plocka 36A",
    "city": "Drobin",
    "postcode": "09-210",
    "telephone": "(24/) 260 13 79"
  },
  {
    "id": 119,
    "brand": "ORLEN",
    "name": "7482 ORLEN - Glogoczow",
    "lat": "49.921364",
    "lng": "19.881168",
    "address": "- 497",
    "city": "Glogoczow",
    "postcode": "32-444",
    "telephone": "722 174 456"
  },
  {
    "id": 126,
    "brand": "ORLEN",
    "name": "7240 ORLEN - Walbrzych",
    "lat": "50.761797",
    "lng": "16.323770",
    "address": "Noworudzka-Swidnicka 58",
    "city": "Walbrzych",
    "postcode": "58-302",
    "telephone": "74 849 00 05"
  },
  {
    "id": 130,
    "brand": "ORLEN",
    "name": "7317 ORLEN - Luszczow I",
    "lat": "51.300283",
    "lng": "22.724336",
    "address": "- 130A",
    "city": "Luszczow Pierwszy",
    "postcode": "20-258",
    "telephone": "817 501 490"
  },
  {
    "id": 131,
    "brand": "ORLEN",
    "name": "7380 ORLEN - Bilczyce",
    "lat": "49.916700",
    "lng": "20.191200",
    "address": "Bilczyce 184",
    "city": "Bilczyce",
    "postcode": "32-420",
    "telephone": "122 514 390"
  },
  {
    "id": 132,
    "brand": "ORLEN",
    "name": "7202 ORLEN - Ostrowiec Swietokrzyski",
    "lat": "50.921401",
    "lng": "21.396460",
    "address": "Opatowska 5b",
    "city": "Ostrowiec Swietokrzyski",
    "postcode": "27-400",
    "telephone": "---"
  },
  {
    "id": 134,
    "brand": "ORLEN",
    "name": "7398 ORLEN - Turzyn",
    "lat": "52.620335",
    "lng": "21.492700",
    "address": "Turzyn 196E",
    "city": "Turzyn",
    "postcode": "07-221",
    "telephone": "515 131 270"
  },
  {
    "id": 137,
    "brand": "ORLEN",
    "name": "7256 ORLEN - Rudzienice",
    "lat": "53.637500",
    "lng": "19.658400",
    "address": "Sadowa 1",
    "city": "Rudzienice",
    "postcode": "14-204",
    "telephone": "896 488 373"
  },
  {
    "id": 138,
    "brand": "ORLEN",
    "name": "7239 ORLEN - Zdunska Wola",
    "lat": "51.607584",
    "lng": "18.922113",
    "address": "Mostowa 3",
    "city": "Zdunska Wola",
    "postcode": "98-220",
    "telephone": "(43 ) 823 67 05"
  },
  {
    "id": 139,
    "brand": "ORLEN",
    "name": "7331 ORLEN - Dobrodzien",
    "lat": "50.744304",
    "lng": "18.442850",
    "address": "Oleska 6",
    "city": "Dobrodzien",
    "postcode": "46-380",
    "telephone": "723 411 399"
  },
  {
    "id": 140,
    "brand": "ORLEN",
    "name": "7522 ORLEN - Myslenice",
    "lat": "49.839302",
    "lng": "19.951751",
    "address": "Kazimierza Wielkiego 58",
    "city": "Myslenice",
    "postcode": "32-400",
    "telephone": "012 272 24 26"
  },
  {
    "id": 144,
    "brand": "ORLEN",
    "name": "7578 ORLEN - Jaworznia",
    "lat": "50.858018",
    "lng": "20.504223",
    "address": "- 208c",
    "city": "Jaworznia",
    "postcode": "26-065",
    "telephone": "---"
  },
  {
    "id": 146,
    "brand": "ORLEN",
    "name": "7305 ORLEN - Zduny",
    "lat": "52.154333",
    "lng": "19.785830",
    "address": "Nowe Zduny 82f",
    "city": "Nowe Zduny",
    "postcode": "99-440",
    "telephone": "46 838 76 05"
  },
  {
    "id": 148,
    "brand": "ORLEN",
    "name": "7565 ORLEN - Sekowo",
    "lat": "52.491875",
    "lng": "16.448965",
    "address": "Lesna 33",
    "city": "Sekowo",
    "postcode": "64-541",
    "telephone": "572 292 719"
  },
  {
    "id": 150,
    "brand": "ORLEN",
    "name": "7159 ORLEN - Jedlanka",
    "lat": "51.523641",
    "lng": "21.099718",
    "address": "Jedlanka 11D",
    "city": "Jedlinsk",
    "postcode": "26-660",
    "telephone": "483 213 290"
  },
  {
    "id": 151,
    "brand": "ORLEN",
    "name": "7151 ORLEN - Lowicz",
    "lat": "52.116968",
    "lng": "19.965978",
    "address": "Poznanska 51",
    "city": "Lowicz",
    "postcode": "99-400",
    "telephone": "501 152 088"
  },
  {
    "id": 154,
    "brand": "ORLEN",
    "name": "7306 ORLEN - Gwozdziany",
    "lat": "50.722880",
    "lng": "18.529246",
    "address": "Topolowa 3",
    "city": "Gwozdziany",
    "postcode": "42-772",
    "telephone": "697 902 030"
  },
  {
    "id": 156,
    "brand": "ORLEN",
    "name": "7053 ORLEN - Lowicz",
    "lat": "52.102367",
    "lng": "19.973423",
    "address": "Bolimowska 75",
    "city": "Lowicz",
    "postcode": "99-400",
    "telephone": "572 770 300"
  },
  {
    "id": 159,
    "brand": "ORLEN",
    "name": "7031 ORLEN - Lososina Dolna",
    "lat": "49.744602",
    "lng": "20.626123",
    "address": "- 250",
    "city": "Lososina Dolna",
    "postcode": "33-314",
    "telephone": "184 440 214"
  },
  {
    "id": 160,
    "brand": "ORLEN",
    "name": "7475 ORLEN - Raba Wyzna",
    "lat": "49.578205",
    "lng": "19.871242",
    "address": "Raba Wyzna  256A",
    "city": "Raba Wyzna",
    "postcode": "34-721",
    "telephone": "(18 ) 268 91 52"
  },
  {
    "id": 161,
    "brand": "ORLEN",
    "name": "7269 ORLEN - Sierakowo",
    "lat": "52.786876",
    "lng": "20.154318",
    "address": "- 1",
    "city": "Sierakowo",
    "postcode": "09-140",
    "telephone": "(23)6792037"
  },
  {
    "id": 164,
    "brand": "ORLEN",
    "name": "7230 ORLEN - Jezowe",
    "lat": "50.369041",
    "lng": "22.126838",
    "address": "Jezowe 661A",
    "city": "Jezowe",
    "postcode": "37-430",
    "telephone": "158 794 913"
  },
  {
    "id": 168,
    "brand": "ORLEN",
    "name": "7119 ORLEN - Jaworek",
    "lat": "51.033704",
    "lng": "18.616122",
    "address": "Jaworek 55/1",
    "city": "Jaworek",
    "postcode": "46-325",
    "telephone": "343 506 200"
  },
  {
    "id": 170,
    "brand": "ORLEN",
    "name": "7614 ORLEN - Szczercow",
    "lat": "51.344600",
    "lng": "19.116597",
    "address": "Laska 41",
    "city": "Szczercow",
    "postcode": "97-420",
    "telephone": "518 365 945"
  },
  {
    "id": 171,
    "brand": "ORLEN",
    "name": "7027 ORLEN - Labowa",
    "lat": "49.505688",
    "lng": "20.894319",
    "address": "- 155",
    "city": "Nowa Wies",
    "postcode": "33-336",
    "telephone": "184 777 164"
  },
  {
    "id": 173,
    "brand": "ORLEN",
    "name": "7432 ORLEN - Wysiadlow",
    "lat": "50.717247",
    "lng": "21.710244",
    "address": "- 66",
    "city": "Wysiadlow",
    "postcode": "27-612",
    "telephone": "(15 ) 644 52 18"
  },
  {
    "id": 174,
    "brand": "ORLEN",
    "name": "7296 ORLEN - Gorliczyna",
    "lat": "50.096214",
    "lng": "22.492602",
    "address": "Gorliczyna 717",
    "city": "Gorliczyna",
    "postcode": "37-200",
    "telephone": "166 427 715"
  },
  {
    "id": 175,
    "brand": "ORLEN",
    "name": "7208 ORLEN - Polkowice",
    "lat": "51.506964",
    "lng": "16.062728",
    "address": "Jana Pawla II 50",
    "city": "Polkowice",
    "postcode": "59-100",
    "telephone": "726 613 871"
  },
  {
    "id": 176,
    "brand": "ORLEN",
    "name": "7382 ORLEN - Sukow",
    "lat": "50.825175",
    "lng": "20.673422",
    "address": "- 185D",
    "city": "Sukow",
    "postcode": "26-021",
    "telephone": "(41 ) 307 37 73"
  },
  {
    "id": 180,
    "brand": "ORLEN",
    "name": "7134 ORLEN - Komorowo",
    "lat": "52.829381",
    "lng": "21.860001",
    "address": "Mazowiecka 18",
    "city": "Komorowo",
    "postcode": "07-310",
    "telephone": "297 451 125"
  },
  {
    "id": 181,
    "brand": "ORLEN",
    "name": "7497 ORLEN - Goryszewo",
    "lat": "52.623503",
    "lng": "18.007922",
    "address": "DK 15 29",
    "city": "Goryszewo",
    "postcode": "88-300",
    "telephone": "52/526-24-66"
  },
  {
    "id": 184,
    "brand": "ORLEN",
    "name": "7231 ORLEN - Zyznow",
    "lat": "49.825696",
    "lng": "21.875457",
    "address": "Zyznow 292A",
    "city": "Zyznow",
    "postcode": "38-111",
    "telephone": "172 774 117"
  },
  {
    "id": 185,
    "brand": "ORLEN",
    "name": "7290 ORLEN - Genowefa",
    "lat": "52.174169",
    "lng": "18.452168",
    "address": "Genowefa 22",
    "city": "Genowefa",
    "postcode": "62-513",
    "telephone": "63  249 31 39"
  },
  {
    "id": 186,
    "brand": "ORLEN",
    "name": "7488 ORLEN - Sulechow",
    "lat": "52.067500",
    "lng": "15.615800",
    "address": "Nowy Swiat 16",
    "city": "Sulechow",
    "postcode": "66-100",
    "telephone": "683 853 515"
  },
  {
    "id": 190,
    "brand": "ORLEN",
    "name": "7212 ORLEN - Grodek nad Dunajcem",
    "lat": "49.756567",
    "lng": "20.748578",
    "address": "Bartkowa 294",
    "city": "Grodek nad Dunajcem",
    "postcode": "33-318",
    "telephone": "184 443 247"
  },
  {
    "id": 192,
    "brand": "ORLEN",
    "name": "7633 ORLEN - Ilowa",
    "lat": "51.523151",
    "lng": "15.215387",
    "address": "Czyzowek 123",
    "city": "Ilowa",
    "postcode": "68-120",
    "telephone": "518 844 811"
  },
  {
    "id": 194,
    "brand": "ORLEN",
    "name": "7219 ORLEN - Padew Narodowa",
    "lat": "50.431780",
    "lng": "21.492167",
    "address": "Jana Pawla II 24",
    "city": "Padew Narodowa",
    "postcode": "39-340",
    "telephone": "511 493 513"
  },
  {
    "id": 195,
    "brand": "ORLEN",
    "name": "7012 ORLEN - Konskie",
    "lat": "51.201941",
    "lng": "20.410163",
    "address": "Warszawska 49A",
    "city": "Konskie",
    "postcode": "26-200",
    "telephone": "(41 ) 375 60 85"
  },
  {
    "id": 196,
    "brand": "ORLEN",
    "name": "7349 ORLEN - Skomielna Biala",
    "lat": "49.625063",
    "lng": "19.948785",
    "address": "- 532",
    "city": "Skomielna Biala",
    "postcode": "32-434",
    "telephone": "604 095 262"
  },
  {
    "id": 200,
    "brand": "ORLEN",
    "name": "7038 ORLEN - Nialek Wielki",
    "lat": "52.114389",
    "lng": "16.085861",
    "address": "- 137",
    "city": "Nialek Wielki",
    "postcode": "64-200",
    "telephone": "683 843 559"
  },
  {
    "id": 201,
    "brand": "ORLEN",
    "name": "7587 ORLEN - Stawiszyn-Petryki",
    "lat": "51.920445",
    "lng": "18.117596",
    "address": "Petryki 10L",
    "city": "Stawiszyn",
    "postcode": "62-820",
    "telephone": "535 661 365"
  },
  {
    "id": 202,
    "brand": "ORLEN",
    "name": "7194 ORLEN - Kobylniki",
    "lat": "52.474700",
    "lng": "20.222290",
    "address": "- 29a",
    "city": "Kobylniki",
    "postcode": "09-450",
    "telephone": "609 431 850"
  },
  {
    "id": 203,
    "brand": "ORLEN",
    "name": "7437 ORLEN - Chocznia",
    "lat": "49.868335",
    "lng": "19.427353",
    "address": "Tadeusza Kosciuszki 367",
    "city": "Chocznia",
    "postcode": "34-123",
    "telephone": "506 181 467"
  },
  {
    "id": 204,
    "brand": "ORLEN",
    "name": "7167 ORLEN - Plock",
    "lat": "52.572583",
    "lng": "19.730366",
    "address": "Bielska 68",
    "city": "Plock",
    "postcode": "09-402",
    "telephone": "(024) 2622130"
  },
  {
    "id": 206,
    "brand": "ORLEN",
    "name": "7558 ORLEN - Kobierzyce",
    "lat": "50.970157",
    "lng": "16.934491",
    "address": "Witosa 1",
    "city": "Kobierzyce",
    "postcode": "55-040",
    "telephone": "713 111 225"
  },
  {
    "id": 207,
    "brand": "ORLEN",
    "name": "7430 ORLEN - Ciolkowo",
    "lat": "52.607296",
    "lng": "19.904287",
    "address": "- 72",
    "city": "Ciolkowo",
    "postcode": "09-451",
    "telephone": "24 261 70 41"
  },
  {
    "id": 212,
    "brand": "ORLEN",
    "name": "7605 ORLEN - Goworowek",
    "lat": "52.907604",
    "lng": "21.566787",
    "address": "Goworowek 39A",
    "city": "Goworowek",
    "postcode": "07-440",
    "telephone": "508 503 713"
  },
  {
    "id": 213,
    "brand": "ORLEN",
    "name": "7612 ORLEN - Opatkowice",
    "lat": "50.201600",
    "lng": "20.303393",
    "address": "- 200",
    "city": "Opatkowice",
    "postcode": "32-100",
    "telephone": "123 863 661"
  },
  {
    "id": 214,
    "brand": "ORLEN",
    "name": "7531 ORLEN - Slawkow",
    "lat": "50.306826",
    "lng": "19.347188",
    "address": "Strzemieszycka 71",
    "city": "Slawkow",
    "postcode": "41-260",
    "telephone": "32 261 44 92"
  },
  {
    "id": 219,
    "brand": "ORLEN",
    "name": "7585 ORLEN - Lublin",
    "lat": "51.227262",
    "lng": "22.480701",
    "address": "Gesia 7",
    "city": "Lublin",
    "postcode": "20-719",
    "telephone": "815 030 404"
  },
  {
    "id": 220,
    "brand": "ORLEN",
    "name": "7307 ORLEN - Lukow",
    "lat": "51.918420",
    "lng": "22.389456",
    "address": "Radzynska 9",
    "city": "Lukow",
    "postcode": "21-400",
    "telephone": "257 983 515"
  },
  {
    "id": 224,
    "brand": "ORLEN",
    "name": "7572 ORLEN - Kielce",
    "lat": "50.823380",
    "lng": "20.622840",
    "address": "Kalinowa 1",
    "city": "Kielce",
    "postcode": "25-147",
    "telephone": "413 489 640"
  },
  {
    "id": 226,
    "brand": "ORLEN",
    "name": "7517 ORLEN - Przysiek",
    "lat": "53.031575",
    "lng": "18.496395",
    "address": "Torunska  2",
    "city": "Przysiek",
    "postcode": "87-134",
    "telephone": "723 790 816"
  },
  {
    "id": 228,
    "brand": "ORLEN",
    "name": "7247 ORLEN - Plock",
    "lat": "52.563768",
    "lng": "19.659433",
    "address": "Dobrzynska 56",
    "city": "Plock",
    "postcode": "09-400",
    "telephone": "(24)2685579"
  },
  {
    "id": 229,
    "brand": "ORLEN",
    "name": "7366 ORLEN - Makow Podhalanski",
    "lat": "49.716715",
    "lng": "19.688600",
    "address": "Bialka 552",
    "city": "Makow Podhalanski",
    "postcode": "34-220",
    "telephone": "338 773 673"
  },
  {
    "id": 230,
    "brand": "ORLEN",
    "name": "7427 ORLEN - Kolaczyce",
    "lat": "49.795921",
    "lng": "21.423426",
    "address": "Burmistrza Wiejowskiego 53",
    "city": "Kolaczyce",
    "postcode": "38-213",
    "telephone": "134 915 460"
  },
  {
    "id": 234,
    "brand": "ORLEN",
    "name": "7468 ORLEN - Nowe Bagienice",
    "lat": "53.843882",
    "lng": "21.221645",
    "address": "Nowe Bagienice 26",
    "city": "Mragowo",
    "postcode": "11-700",
    "telephone": "897 428 300"
  },
  {
    "id": 237,
    "brand": "ORLEN",
    "name": "7079 ORLEN - Piotrkow Trybunalski",
    "lat": "51.402254",
    "lng": "19.735919",
    "address": "Sulejowska 134",
    "city": "Piotrkow Trybunalski",
    "postcode": "97-300",
    "telephone": "(44)6463733"
  },
  {
    "id": 239,
    "brand": "ORLEN",
    "name": "7551 ORLEN - Poraj",
    "lat": "50.682201",
    "lng": "19.205510",
    "address": "3 Maja 71",
    "city": "Poraj",
    "postcode": "42-360",
    "telephone": "530 076 461"
  },
  {
    "id": 240,
    "brand": "ORLEN",
    "name": "7454 ORLEN - Pcim",
    "lat": "49.747314",
    "lng": "19.973377",
    "address": "Pcim 1426",
    "city": "Pcim",
    "postcode": "32-432",
    "telephone": "122 748 286"
  },
  {
    "id": 244,
    "brand": "ORLEN",
    "name": "7150 ORLEN - Pszczyna",
    "lat": "49.968261",
    "lng": "18.926205",
    "address": "Cieszynska 46A",
    "city": "Pszczyna",
    "postcode": "43-200",
    "telephone": "322 128 034"
  },
  {
    "id": 246,
    "brand": "ORLEN",
    "name": "7495 ORLEN - Florynka",
    "lat": "49.552158",
    "lng": "20.983894",
    "address": "- 1",
    "city": "Florynka",
    "postcode": "33-332",
    "telephone": "184 471 428"
  },
  {
    "id": 247,
    "brand": "ORLEN",
    "name": "7486 ORLEN - Dobczyce",
    "lat": "49.885991",
    "lng": "20.103159",
    "address": "Obwodowa 6",
    "city": "Dobczyce",
    "postcode": "32-410",
    "telephone": "123 728 926"
  },
  {
    "id": 249,
    "brand": "ORLEN",
    "name": "7537 ORLEN - Zielona",
    "lat": "53.083417",
    "lng": "19.948285",
    "address": "1-go Maja 117",
    "city": "Zielona",
    "postcode": "09-310",
    "telephone": "23/657-90-26"
  },
  {
    "id": 250,
    "brand": "ORLEN",
    "name": "7389 ORLEN - Ojrzen",
    "lat": "52.759878",
    "lng": "20.541006",
    "address": "- 42",
    "city": "Dabrowa",
    "postcode": "06-456",
    "telephone": "(23) 671 80 98"
  },
  {
    "id": 251,
    "brand": "ORLEN",
    "name": "7397 ORLEN - Chojny Mlode",
    "lat": "53.160327",
    "lng": "21.931379",
    "address": "- -",
    "city": "Chojny Mlode",
    "postcode": "18-400",
    "telephone": "862 170 940"
  },
  {
    "id": 252,
    "brand": "ORLEN",
    "name": "7136 ORLEN - Chociszewo",
    "lat": "52.416389",
    "lng": "20.380745",
    "address": "Chociszewo 41B",
    "city": "Czerwinsk nad Wisla",
    "postcode": "09-150",
    "telephone": "242 316 202"
  },
  {
    "id": 255,
    "brand": "ORLEN",
    "name": "7015 ORLEN - Jawornik",
    "lat": "49.865976",
    "lng": "19.911366",
    "address": "- 447",
    "city": "Jawornik",
    "postcode": "32-400",
    "telephone": "(012) 2742440"
  },
  {
    "id": 256,
    "brand": "ORLEN",
    "name": "7404 ORLEN - Rataje Slupskie/Zabiec",
    "lat": "50.339100",
    "lng": "21.069200",
    "address": "Zabiec 4",
    "city": "Zabiec",
    "postcode": "28-133",
    "telephone": "(41 ) 376 58 48"
  },
  {
    "id": 257,
    "brand": "ORLEN",
    "name": "7332 ORLEN - Zamosc",
    "lat": "50.730537",
    "lng": "23.270551",
    "address": "Zagloby 5",
    "city": "Zamosc",
    "postcode": "22-400",
    "telephone": "846 392 685"
  },
  {
    "id": 258,
    "brand": "ORLEN",
    "name": "7607 ORLEN - Legnica",
    "lat": "51.214059",
    "lng": "16.163054",
    "address": "Lokietka 9",
    "city": "Legnica",
    "postcode": "59-220",
    "telephone": "531 717 698"
  },
  {
    "id": 260,
    "brand": "ORLEN",
    "name": "7603 ORLEN - Bukowiec",
    "lat": "51.686007",
    "lng": "19.670521",
    "address": "Rokicinska 122",
    "city": "Bukowiec",
    "postcode": "95-006",
    "telephone": "---"
  },
  {
    "id": 261,
    "brand": "ORLEN",
    "name": "7464 ORLEN - Bedzin",
    "lat": "50.357756",
    "lng": "19.121980",
    "address": "Pustkowie 2",
    "city": "Bedzin",
    "postcode": "42-504",
    "telephone": "322 678 885"
  },
  {
    "id": 263,
    "brand": "ORLEN",
    "name": "7282 ORLEN - Tomaszow Lubelski",
    "lat": "50.436547",
    "lng": "23.423103",
    "address": "Rolnicza 10",
    "city": "Tomaszow Lubelski",
    "postcode": "22-600",
    "telephone": "846 647 126"
  },
  {
    "id": 264,
    "brand": "ORLEN",
    "name": "7229 ORLEN - Drawno",
    "lat": "53.213882",
    "lng": "15.745038",
    "address": "Choszczenska 70A",
    "city": "Drawno",
    "postcode": "73-220",
    "telephone": "957 682 334"
  },
  {
    "id": 266,
    "brand": "ORLEN",
    "name": "7356 ORLEN - Radoszyce",
    "lat": "51.072801",
    "lng": "20.271441",
    "address": "Konecka 69B",
    "city": "Radoszyce",
    "postcode": "26-230",
    "telephone": "(41 ) 373 50 47"
  },
  {
    "id": 269,
    "brand": "ORLEN",
    "name": "7234 ORLEN - Ledziny",
    "lat": "50.153629",
    "lng": "19.135280",
    "address": "Holdunowska bn",
    "city": "Ledziny",
    "postcode": "43-143",
    "telephone": "323 267 571"
  },
  {
    "id": 272,
    "brand": "ORLEN",
    "name": "7552 ORLEN - Nowa Wies Legnicka",
    "lat": "51.158333",
    "lng": "16.173312",
    "address": "- 44a",
    "city": "Nowa Wies Legnicka",
    "postcode": "59-241",
    "telephone": "768 713 336"
  },
  {
    "id": 274,
    "brand": "ORLEN",
    "name": "7559 ORLEN - Krakow",
    "lat": "50.000714",
    "lng": "19.863713",
    "address": "Skotnicka 242",
    "city": "Krakow",
    "postcode": "30-394",
    "telephone": "123 575 199"
  },
  {
    "id": 275,
    "brand": "ORLEN",
    "name": "7328 ORLEN - Grybow / Biala Nizna",
    "lat": "49.627531",
    "lng": "20.968736",
    "address": "- -",
    "city": "Biala Nizna",
    "postcode": "33-330",
    "telephone": "185 417 799"
  },
  {
    "id": 276,
    "brand": "ORLEN",
    "name": "7357 ORLEN - Huta Podgorna",
    "lat": "52.546358",
    "lng": "21.162856",
    "address": "Huta Podgorna 24",
    "city": "Huta Podgorna",
    "postcode": "07-203",
    "telephone": "297 421 717"
  },
  {
    "id": 283,
    "brand": "ORLEN",
    "name": "7187 ORLEN - Chrzastowice",
    "lat": "50.669100",
    "lng": "18.068500",
    "address": "Opolska 3 -",
    "city": "Chrzastowice",
    "postcode": "46-053",
    "telephone": "774 270 770"
  },
  {
    "id": 284,
    "brand": "ORLEN",
    "name": "7487 ORLEN - Tuchola",
    "lat": "53.579143",
    "lng": "17.875121",
    "address": "Swiecka 94",
    "city": "Tuchola",
    "postcode": "89-500",
    "telephone": "(52) 3361256"
  },
  {
    "id": 285,
    "brand": "ORLEN",
    "name": "7489 ORLEN - Nowy Sacz",
    "lat": "49.639410",
    "lng": "20.695544",
    "address": "Wincentego Witosa 110",
    "city": "Nowy Sacz",
    "postcode": "33-300",
    "telephone": "184 410 049"
  },
  {
    "id": 287,
    "brand": "ORLEN",
    "name": "7555 ORLEN - Torun",
    "lat": "53.025329",
    "lng": "18.645092",
    "address": "Wschodnia 36A",
    "city": "Torun",
    "postcode": "87-100",
    "telephone": "56 659 11 69"
  },
  {
    "id": 290,
    "brand": "ORLEN",
    "name": "7113 ORLEN - Baniocha",
    "lat": "52.027343",
    "lng": "21.117655",
    "address": "Solec k/Baniochy 157",
    "city": "Solec",
    "postcode": "05-532",
    "telephone": "---"
  },
  {
    "id": 291,
    "brand": "ORLEN",
    "name": "7508 ORLEN - Rozszczep",
    "lat": "52.444984",
    "lng": "21.317896",
    "address": "Rozszczep 22A",
    "city": "Klembow",
    "postcode": "05-205",
    "telephone": "---"
  },
  {
    "id": 293,
    "brand": "ORLEN",
    "name": "7567 ORLEN - Mikolow",
    "lat": "50.170374",
    "lng": "18.870008",
    "address": "Cieszynska 39",
    "city": "Mikolow",
    "postcode": "43-190",
    "telephone": "530 047 874"
  },
  {
    "id": 296,
    "brand": "ORLEN",
    "name": "7400 ORLEN - Zgorzelec",
    "lat": "51.127200",
    "lng": "15.016100",
    "address": "Luzycka 87",
    "city": "Zgorzelec",
    "postcode": "59-900",
    "telephone": "505 952 700"
  },
  {
    "id": 299,
    "brand": "ORLEN",
    "name": "7594 ORLEN - Sierpc",
    "lat": "52.864212",
    "lng": "19.663879",
    "address": "Kosciuszki 32",
    "city": "Sierpc",
    "postcode": "09-200",
    "telephone": "575 601 606"
  },
  {
    "id": 303,
    "brand": "ORLEN",
    "name": "7620 ORLEN - Stargard",
    "lat": "53.333237",
    "lng": "15.044070",
    "address": "Labedzia 22",
    "city": "Stargard",
    "postcode": "73-110",
    "telephone": "506 000 347"
  },
  {
    "id": 304,
    "brand": "ORLEN",
    "name": "7611 ORLEN - Nowa Sarzyna",
    "lat": "50.333187",
    "lng": "22.335879",
    "address": "Kwiatkowskiego 1",
    "city": "Nowa Sarzyna",
    "postcode": "37-310",
    "telephone": "177 177 071"
  },
  {
    "id": 307,
    "brand": "ORLEN",
    "name": "7350 ORLEN - Zary",
    "lat": "51.638200",
    "lng": "15.120800",
    "address": "Moniuszki 64",
    "city": "Zary",
    "postcode": "68-200",
    "telephone": "683 634 747"
  },
  {
    "id": 308,
    "brand": "ORLEN",
    "name": "7623 ORLEN - Mlodoszowice",
    "lat": "50.783918",
    "lng": "17.347110",
    "address": "Wezel Przylesie 150",
    "city": "Mlodoszowice",
    "postcode": "49-200",
    "telephone": "774 040 511"
  },
  {
    "id": 312,
    "brand": "ORLEN",
    "name": "7093 ORLEN - Katowice",
    "lat": "50.258977",
    "lng": "18.985302",
    "address": "Bochenskiego 99",
    "city": "Katowice",
    "postcode": "40-847",
    "telephone": "730 900 316"
  },
  {
    "id": 313,
    "brand": "ORLEN",
    "name": "7207 ORLEN - Ostrow Wielkopolski 2",
    "lat": "51.742993",
    "lng": "17.830689",
    "address": "Gorzno 20A",
    "city": "Gorzno",
    "postcode": "63-450",
    "telephone": "627 348 702"
  },
  {
    "id": 314,
    "brand": "ORLEN",
    "name": "7393 ORLEN - Kielce",
    "lat": "50.801568",
    "lng": "20.619664",
    "address": "Ks. Piotra  Sciegiennego 264",
    "city": "Kielce",
    "postcode": "25-116",
    "telephone": "(41 ) 361 87 03"
  },
  {
    "id": 315,
    "brand": "ORLEN",
    "name": "7217 ORLEN - Suchozebry",
    "lat": "52.273438",
    "lng": "22.247251",
    "address": "Siedlecka 7",
    "city": "Suchozebry",
    "postcode": "08-125",
    "telephone": "256 316 597"
  },
  {
    "id": 316,
    "brand": "ORLEN",
    "name": "7634 ORLEN - Konin",
    "lat": "52.237924",
    "lng": "18.261296",
    "address": "Paderewskiego 12",
    "city": "Konin",
    "postcode": "62-510",
    "telephone": "63 240 63 88"
  },
  {
    "id": 317,
    "brand": "ORLEN",
    "name": "7098 ORLEN - Stopka",
    "lat": "53.283297",
    "lng": "17.931412",
    "address": "Stopka 7",
    "city": "Stopka",
    "postcode": "86-010",
    "telephone": "(052) 3822655"
  },
  {
    "id": 321,
    "brand": "ORLEN",
    "name": "7142 ORLEN - Nysa",
    "lat": "50.453278",
    "lng": "17.345398",
    "address": "Zwyciestwa 2",
    "city": "Nysa",
    "postcode": "48-303",
    "telephone": "774 333 890"
  },
  {
    "id": 325,
    "brand": "ORLEN",
    "name": "7602 ORLEN - Kalisz",
    "lat": "51.740141",
    "lng": "18.046244",
    "address": "Aleja Wojska Polskiego 2I",
    "city": "Kalisz",
    "postcode": "62-800",
    "telephone": "887 887 478"
  },
  {
    "id": 326,
    "brand": "ORLEN",
    "name": "7560 ORLEN - Opatowek",
    "lat": "51.736516",
    "lng": "18.193572",
    "address": "Helleny 8",
    "city": "Opatowek",
    "postcode": "62-860",
    "telephone": "625 942 222"
  },
  {
    "id": 327,
    "brand": "ORLEN",
    "name": "7618 ORLEN - Korczyna",
    "lat": "49.715036",
    "lng": "21.807534",
    "address": "Szeptyckiego 1A",
    "city": "Korczyna",
    "postcode": "38-420",
    "telephone": "134 388 095"
  },
  {
    "id": 328,
    "brand": "ORLEN",
    "name": "7147 ORLEN - Czestochowa",
    "lat": "50.768839",
    "lng": "19.163451",
    "address": "Al. Wojska Polskiego 80",
    "city": "Czestochowa",
    "postcode": "42-200",
    "telephone": "343 709 135"
  },
  {
    "id": 329,
    "brand": "ORLEN",
    "name": "7506 ORLEN - Swidry",
    "lat": "51.898836",
    "lng": "22.358577",
    "address": "- 2E",
    "city": "Swidry",
    "postcode": "21-400",
    "telephone": "257 946 789"
  },
  {
    "id": 331,
    "brand": "ORLEN",
    "name": "7342 ORLEN - Nawojowa",
    "lat": "49.556885",
    "lng": "20.751715",
    "address": "Krynicka  65",
    "city": "Nawojowa",
    "postcode": "33-335",
    "telephone": "184 457 685"
  },
  {
    "id": 332,
    "brand": "ORLEN",
    "name": "7447 ORLEN - Pila",
    "lat": "53.155559",
    "lng": "16.683104",
    "address": "wojska polskiego 81",
    "city": "Pila",
    "postcode": "64-920",
    "telephone": "67 349 24 34"
  },
  {
    "id": 333,
    "brand": "ORLEN",
    "name": "7518 ORLEN - Jedrzychowice",
    "lat": "51.185100",
    "lng": "15.050400",
    "address": "Jedrzychowice 114",
    "city": "Zgorzelec",
    "postcode": "59-900",
    "telephone": "757 760 120"
  },
  {
    "id": 335,
    "brand": "ORLEN",
    "name": "7178 ORLEN - Sedziszow Malopolski",
    "lat": "50.064714",
    "lng": "21.688684",
    "address": "Weglowskiego 6",
    "city": "Sedziszow Malopolski",
    "postcode": "39-120",
    "telephone": "172 226 428"
  },
  {
    "id": 336,
    "brand": "ORLEN",
    "name": "7484 ORLEN - Pleszew",
    "lat": "51.891193",
    "lng": "17.774351",
    "address": "Lipowa 16",
    "city": "Pleszew",
    "postcode": "63-300",
    "telephone": "627 420 146"
  },
  {
    "id": 337,
    "brand": "ORLEN",
    "name": "7538 ORLEN - Kominy",
    "lat": "53.221834",
    "lng": "19.384804",
    "address": "Gorczenica 1 D",
    "city": "Gorczenica",
    "postcode": "87-300",
    "telephone": "(56) 4721409"
  },
  {
    "id": 338,
    "brand": "ORLEN",
    "name": "7622 ORLEN - Stary Sacz",
    "lat": "49.568029",
    "lng": "20.656850",
    "address": "Jana Pawla II 77",
    "city": "Stary Sacz",
    "postcode": "33-340",
    "telephone": "731 897 839"
  },
  {
    "id": 339,
    "brand": "ORLEN",
    "name": "7232 ORLEN - Glogow",
    "lat": "51.655703",
    "lng": "16.102163",
    "address": "Aleja Kazimierza Wielkiego 6",
    "city": "Glogow",
    "postcode": "67-200",
    "telephone": "768 356 931"
  },
  {
    "id": 340,
    "brand": "ORLEN",
    "name": "7526 ORLEN - Nowa Lubianka",
    "lat": "53.240346",
    "lng": "16.640232",
    "address": "Nowa Lubianka DK10",
    "city": "Szydlowo",
    "postcode": "64-930",
    "telephone": "502 002 260"
  },
  {
    "id": 341,
    "brand": "ORLEN",
    "name": "7125 ORLEN - Michalin",
    "lat": "52.795211",
    "lng": "18.838751",
    "address": "Michalin 23",
    "city": "Michalin",
    "postcode": "87-731",
    "telephone": "(054) 2830096"
  },
  {
    "id": 342,
    "brand": "ORLEN",
    "name": "7373 ORLEN - Lisia Gora",
    "lat": "50.074043",
    "lng": "21.021245",
    "address": "Tarnowska 7",
    "city": "Lisia Gora",
    "postcode": "33-140",
    "telephone": "146 785 323"
  },
  {
    "id": 344,
    "brand": "ORLEN",
    "name": "7601 ORLEN - Rogowko",
    "lat": "53.079053",
    "lng": "18.764423",
    "address": "- 39A",
    "city": "Rogowko",
    "postcode": "87-162",
    "telephone": "566 449 142"
  },
  {
    "id": 345,
    "brand": "ORLEN",
    "name": "7473 ORLEN - Globino",
    "lat": "54.441575",
    "lng": "17.099941",
    "address": "Globino 1a",
    "city": "Globino",
    "postcode": "76-200",
    "telephone": "530 528 612"
  },
  {
    "id": 349,
    "brand": "ORLEN",
    "name": "7292 ORLEN - Tarnowo Podgorne",
    "lat": "52.458596",
    "lng": "16.653958",
    "address": "Owocowa 20",
    "city": "Tarnowo Podgorne",
    "postcode": "62-080",
    "telephone": "61 816 41 52"
  },
  {
    "id": 350,
    "brand": "ORLEN",
    "name": "7348 ORLEN - Stary Brzesc",
    "lat": "52.612739",
    "lng": "18.910366",
    "address": "Stary Brzesc 1",
    "city": "Stary Brzesc",
    "postcode": "87-880",
    "telephone": "800 100 110"
  },
  {
    "id": 351,
    "brand": "ORLEN",
    "name": "7108 ORLEN - Krakow",
    "lat": "50.074829",
    "lng": "20.140287",
    "address": "Igolomska/Szymanskiego 30 L",
    "city": "Krakow",
    "postcode": "31-983",
    "telephone": "126 408 026"
  },
  {
    "id": 352,
    "brand": "ORLEN",
    "name": "7272 ORLEN - Zabkowice Slaskie",
    "lat": "50.591883",
    "lng": "16.827014",
    "address": "Powstancow Warszawy 0",
    "city": "Zabkowice Slaskie",
    "postcode": "57-200",
    "telephone": "746 411 955"
  },
  {
    "id": 353,
    "brand": "ORLEN",
    "name": "7032 ORLEN - Hebdow",
    "lat": "50.137811",
    "lng": "20.386309",
    "address": "Hebdow 169",
    "city": "Hebdow",
    "postcode": "32-120",
    "telephone": "123 852 576"
  },
  {
    "id": 354,
    "brand": "ORLEN",
    "name": "7060 ORLEN - Zgorzelec",
    "lat": "51.151600",
    "lng": "15.019300",
    "address": "Armii Krajowej 71",
    "city": "Zgorzelec",
    "postcode": "59-900",
    "telephone": "757 750 329"
  },
  {
    "id": 356,
    "brand": "ORLEN",
    "name": "7600 ORLEN - Jozefow",
    "lat": "51.729657",
    "lng": "18.268235",
    "address": "- 28",
    "city": "Jozefow",
    "postcode": "62-860",
    "telephone": "627 638 702"
  },
  {
    "id": 357,
    "brand": "ORLEN",
    "name": "7556 ORLEN - Walcz",
    "lat": "53.298556",
    "lng": "16.456334",
    "address": "Kolobrzeska 41",
    "city": "Walcz",
    "postcode": "78-600",
    "telephone": "673 875 022"
  },
  {
    "id": 363,
    "brand": "ORLEN",
    "name": "7352 ORLEN - Krynica",
    "lat": "49.385069",
    "lng": "20.951459",
    "address": "Zawodzie 2",
    "city": "Krynica-Zdroj",
    "postcode": "33-380",
    "telephone": "184 723 101"
  },
  {
    "id": 364,
    "brand": "ORLEN",
    "name": "7144 ORLEN - Nowy Dwor",
    "lat": "52.416121",
    "lng": "20.749751",
    "address": "Wolka Gorska 67",
    "city": "Nowy Dwor Mazowiecki",
    "postcode": "05-100",
    "telephone": "227 754 096"
  },
  {
    "id": 366,
    "brand": "ORLEN",
    "name": "7483 ORLEN - Wasosz",
    "lat": "51.570828",
    "lng": "16.707008",
    "address": "Rawicka 22",
    "city": "Wasosz",
    "postcode": "56-210",
    "telephone": "655 438 101"
  },
  {
    "id": 368,
    "brand": "ORLEN",
    "name": "7418 ORLEN - Pruszcz",
    "lat": "53.333234",
    "lng": "18.192614",
    "address": "Lowinska 6",
    "city": "Pruszcz",
    "postcode": "86-120",
    "telephone": "601 907 700"
  },
  {
    "id": 369,
    "brand": "ORLEN",
    "name": "7191 ORLEN - Lipno",
    "lat": "52.851555",
    "lng": "19.200010",
    "address": "Wojska Polskiego 8",
    "city": "Lipno",
    "postcode": "87-600",
    "telephone": "542 873 261"
  },
  {
    "id": 373,
    "brand": "ORLEN",
    "name": "7066 ORLEN - Lacko",
    "lat": "49.552758",
    "lng": "20.455632",
    "address": "- 710",
    "city": "Lacko",
    "postcode": "33-390",
    "telephone": "184 445 863"
  },
  {
    "id": 374,
    "brand": "ORLEN",
    "name": "7041 ORLEN - Buk",
    "lat": "52.365341",
    "lng": "16.534968",
    "address": "Sw Rocha 62",
    "city": "Buk",
    "postcode": "64-320",
    "telephone": "(061) 8140331"
  },
  {
    "id": 376,
    "brand": "ORLEN",
    "name": "7502 ORLEN - Ropczyce",
    "lat": "50.073729",
    "lng": "21.585372",
    "address": "Robotnicza 1",
    "city": "Ropczyce",
    "postcode": "39-100",
    "telephone": "172 228 464"
  },
  {
    "id": 377,
    "brand": "ORLEN",
    "name": "7638 ORLEN - Hajdaszek",
    "lat": "50.591673",
    "lng": "20.559527",
    "address": "- 31a",
    "city": "Hajdaszek",
    "postcode": "28-404",
    "telephone": "41 356 84 57"
  },
  {
    "id": 378,
    "brand": "ORLEN",
    "name": "7116 ORLEN - Marki",
    "lat": "52.315953",
    "lng": "21.118115",
    "address": "Fabryczna 84",
    "city": "Marki",
    "postcode": "05-270",
    "telephone": "227 619 450"
  },
  {
    "id": 381,
    "brand": "ORLEN",
    "name": "7510 ORLEN - Podglebokie",
    "lat": "51.294897",
    "lng": "23.111748",
    "address": "- 3B",
    "city": "Podglebokie",
    "postcode": "21-070",
    "telephone": "825 677 244"
  },
  {
    "id": 383,
    "brand": "ORLEN",
    "name": "7270 ORLEN - Zabkowice Slaskie",
    "lat": "50.581598",
    "lng": "16.805401",
    "address": "Klodzka 20",
    "city": "Zabkowice Slaskie",
    "postcode": "57-200",
    "telephone": "748 157 876"
  },
  {
    "id": 384,
    "brand": "ORLEN",
    "name": "7139 ORLEN - Bierzwnik",
    "lat": "53.031200",
    "lng": "15.674300",
    "address": "Dluga 16",
    "city": "Bierzwnik",
    "postcode": "73-240",
    "telephone": "664 317 116"
  },
  {
    "id": 385,
    "brand": "ORLEN",
    "name": "7571 ORLEN - Gorzow Wielkopolski",
    "lat": "52.758074",
    "lng": "15.236771",
    "address": "Gorczynska 57",
    "city": "Gorzow Wielkopolski",
    "postcode": "66-400",
    "telephone": "957 520 010"
  },
  {
    "id": 386,
    "brand": "ORLEN",
    "name": "7530 ORLEN - Dabrowki",
    "lat": "50.120650",
    "lng": "22.232390",
    "address": "Dabrowki 199",
    "city": "Dabrowki",
    "postcode": "37-100",
    "telephone": "172 250 995"
  },
  {
    "id": 389,
    "brand": "ORLEN",
    "name": "7598 ORLEN - Nowogrod",
    "lat": "53.224287",
    "lng": "21.889843",
    "address": "Lomzynska 22",
    "city": "Nowogrod",
    "postcode": "18-414",
    "telephone": "86 212 51 43"
  },
  {
    "id": 390,
    "brand": "ORLEN",
    "name": "7061 ORLEN - Luban",
    "lat": "51.125600",
    "lng": "15.289500",
    "address": "Cmentarna 5",
    "city": "Luban",
    "postcode": "59-800",
    "telephone": "(075) 722 36 07"
  },
  {
    "id": 392,
    "brand": "ORLEN",
    "name": "7413 ORLEN - Grabow",
    "lat": "50.576292",
    "lng": "18.131272",
    "address": "Przy drodze krajowej nr 94 -",
    "city": "Grabow",
    "postcode": "47-180",
    "telephone": "774 631 513"
  },
  {
    "id": 393,
    "brand": "ORLEN",
    "name": "7516 ORLEN - Chociwel",
    "lat": "53.454311",
    "lng": "15.326003",
    "address": "Starzyce 30",
    "city": "Chociwel",
    "postcode": "73-120",
    "telephone": "784 603 906"
  },
  {
    "id": 394,
    "brand": "ORLEN",
    "name": "7453 ORLEN - Moderowka",
    "lat": "49.755251",
    "lng": "21.620278",
    "address": "Moderowka 307B",
    "city": "Moderowka",
    "postcode": "38-460",
    "telephone": "797 384 390"
  },
  {
    "id": 396,
    "brand": "ORLEN",
    "name": "7416 ORLEN - Kielce",
    "lat": "50.902541",
    "lng": "20.655076",
    "address": "Wincentego Witosa 64k",
    "city": "Kielce",
    "postcode": "25-561",
    "telephone": "(41 ) 373 24 50"
  },
  {
    "id": 398,
    "brand": "ORLEN",
    "name": "7637 ORLEN - Przeciszow",
    "lat": "50.015711",
    "lng": "19.355619",
    "address": "Oswiecimska -",
    "city": "Przeciszow",
    "postcode": "32-641",
    "telephone": "505 111 900"
  },
  {
    "id": 399,
    "brand": "ORLEN",
    "name": "7165 ORLEN - Gorlice",
    "lat": "49.648814",
    "lng": "21.166165",
    "address": "Wegierska 29 A",
    "city": "Gorlice",
    "postcode": "38-300",
    "telephone": "183 526 594"
  },
  {
    "id": 400,
    "brand": "ORLEN",
    "name": "7001 ORLEN - Wisla",
    "lat": "49.668802",
    "lng": "18.846800",
    "address": "Ustronska 2",
    "city": "Wisla",
    "postcode": "43-460",
    "telephone": "(033) 8577793"
  },
  {
    "id": 409,
    "brand": "ORLEN",
    "name": "7170 ORLEN - Koluszki",
    "lat": "51.740700",
    "lng": "19.815900",
    "address": "Towarowa 1A",
    "city": "Koluszki",
    "postcode": "95-040",
    "telephone": "(44 ) 714 29 23"
  },
  {
    "id": 410,
    "brand": "ORLEN",
    "name": "7448 ORLEN - Starogard Gdanski",
    "lat": "53.957821",
    "lng": "18.541634",
    "address": "Pelplinska 21",
    "city": "Starogard Gdanski",
    "postcode": "83-200",
    "telephone": "(58) 562-40-31"
  },
  {
    "id": 414,
    "brand": "ORLEN",
    "name": "7115 ORLEN - Czestochowa",
    "lat": "50.787732",
    "lng": "19.112289",
    "address": "Jagiellonska 113",
    "city": "Czestochowa",
    "postcode": "42-200",
    "telephone": "343 657 700"
  },
  {
    "id": 417,
    "brand": "ORLEN",
    "name": "7013 ORLEN - Biala Podlaska",
    "lat": "52.033796",
    "lng": "23.069253",
    "address": "Warszawska 128",
    "city": "Biala Podlaska",
    "postcode": "21-500",
    "telephone": "833 441 745"
  },
  {
    "id": 418,
    "brand": "ORLEN",
    "name": "7291 ORLEN - Granowo",
    "lat": "52.222613",
    "lng": "16.544198",
    "address": "Poznanska 1A",
    "city": "Granowo",
    "postcode": "62-066",
    "telephone": "789 205 857"
  },
  {
    "id": 419,
    "brand": "ORLEN",
    "name": "7384 ORLEN - Tworog",
    "lat": "50.528890",
    "lng": "18.717273",
    "address": "Tarnogorska 3",
    "city": "Tworog",
    "postcode": "42-690",
    "telephone": "322 857 403"
  },
  {
    "id": 422,
    "brand": "ORLEN",
    "name": "7626 ORLEN - Elk",
    "lat": "53.832995",
    "lng": "22.327520",
    "address": "11 Listopada 52",
    "city": "Elk",
    "postcode": "19-300",
    "telephone": "876 214 241"
  },
  {
    "id": 423,
    "brand": "ORLEN",
    "name": "7106 ORLEN - Kolno",
    "lat": "53.410520",
    "lng": "21.928050",
    "address": "Wojska Polskiego 51",
    "city": "Kolno",
    "postcode": "18-500",
    "telephone": "602 107 420"
  },
  {
    "id": 426,
    "brand": "ORLEN",
    "name": "7616 ORLEN - Brody",
    "lat": "49.869978",
    "lng": "19.710485",
    "address": "- 667",
    "city": "Brody",
    "postcode": "34-130",
    "telephone": "338 709 704"
  },
  {
    "id": 427,
    "brand": "ORLEN",
    "name": "7478 ORLEN - Jaslo",
    "lat": "49.736499",
    "lng": "21.466411",
    "address": "3 Maja 41",
    "city": "Jaslo",
    "postcode": "38-200",
    "telephone": "134 437 039"
  },
  {
    "id": 429,
    "brand": "ORLEN",
    "name": "7500 ORLEN - Wieliczka",
    "lat": "49.972921",
    "lng": "20.061849",
    "address": "Dobczycka 27",
    "city": "Wieliczka",
    "postcode": "32-020",
    "telephone": "535 009 982"
  },
  {
    "id": 430,
    "brand": "ORLEN",
    "name": "7265 ORLEN - Gorno",
    "lat": "50.861700",
    "lng": "20.792400",
    "address": "Gorno 163",
    "city": "Gorno",
    "postcode": "26-008",
    "telephone": "(41) 3023941"
  },
  {
    "id": 432,
    "brand": "ORLEN",
    "name": "7347 ORLEN - Szczecin",
    "lat": "53.414556",
    "lng": "14.569494",
    "address": "Gdanska 5",
    "city": "Szczecin",
    "postcode": "70-660",
    "telephone": "695 196 024"
  },
  {
    "id": 433,
    "brand": "ORLEN",
    "name": "7026 ORLEN - Rychwal",
    "lat": "52.067930",
    "lng": "18.160423",
    "address": "Grodziecka 2A",
    "city": "Rychwal",
    "postcode": "62-570",
    "telephone": "632 482 907"
  },
  {
    "id": 435,
    "brand": "ORLEN",
    "name": "7604 ORLEN - Kczewo",
    "lat": "54.379303",
    "lng": "18.313567",
    "address": "Kczewo 80",
    "city": "Kczewo",
    "postcode": "83-304",
    "telephone": "(58) 3556006"
  },
  {
    "id": 436,
    "brand": "ORLEN",
    "name": "7323 ORLEN - Wijewo",
    "lat": "51.911306",
    "lng": "16.184604",
    "address": "Witosa 57",
    "city": "Wijewo",
    "postcode": "64-150",
    "telephone": "655 494 208"
  },
  {
    "id": 438,
    "brand": "ORLEN",
    "name": "7419 ORLEN - Browina",
    "lat": "53.167678",
    "lng": "18.582902",
    "address": "Browina 100",
    "city": "Chelmza",
    "postcode": "87-140",
    "telephone": "(56) 6750540"
  },
  {
    "id": 439,
    "brand": "ORLEN",
    "name": "7630 ORLEN - Swierczow",
    "lat": "50.262636",
    "lng": "21.718030",
    "address": "Swierczow 140B",
    "city": "Swierczow",
    "postcode": "36-100",
    "telephone": "172 273 653"
  },
  {
    "id": 443,
    "brand": "ORLEN",
    "name": "7224 ORLEN - Swiebodzice",
    "lat": "50.869014",
    "lng": "16.296675",
    "address": "Jeleniogorska 52",
    "city": "Swiebodzice",
    "postcode": "58-160",
    "telephone": "748 561 055"
  },
  {
    "id": 445,
    "brand": "ORLEN",
    "name": "7492 ORLEN - Plock",
    "lat": "52.559904",
    "lng": "19.709430",
    "address": "Targowa 4",
    "city": "Plock",
    "postcode": "09-407",
    "telephone": "501 197 430"
  },
  {
    "id": 446,
    "brand": "ORLEN",
    "name": "7372 ORLEN - Romanow",
    "lat": "50.670656",
    "lng": "19.121709",
    "address": "- 10A",
    "city": "Romanow",
    "postcode": "42-260",
    "telephone": "(034) 327 32 27"
  },
  {
    "id": 449,
    "brand": "ORLEN",
    "name": "7627 ORLEN - Kakolewo",
    "lat": "51.861331",
    "lng": "16.696979",
    "address": "Gostynska  2",
    "city": "Kakolewo",
    "postcode": "64-113",
    "telephone": "572 351 939"
  },
  {
    "id": 452,
    "brand": "ORLEN",
    "name": "7407 ORLEN - Male Czyste",
    "lat": "53.307856",
    "lng": "18.510344",
    "address": "- 84",
    "city": "Male Czyste",
    "postcode": "86-212",
    "telephone": "(56) 6865419"
  },
  {
    "id": 456,
    "brand": "ORLEN",
    "name": "7480 ORLEN - Grady",
    "lat": "52.837054",
    "lng": "21.750854",
    "address": "Grady 3A",
    "city": "Wasewo",
    "postcode": "07-311",
    "telephone": "531 939 100"
  },
  {
    "id": 459,
    "brand": "ORLEN",
    "name": "7545 ORLEN - Myslenice",
    "lat": "49.834087",
    "lng": "19.949203",
    "address": "Slowackiego 47",
    "city": "Myslenice",
    "postcode": "32-400",
    "telephone": "12 274 13 32"
  },
  {
    "id": 460,
    "brand": "ORLEN",
    "name": "7334 ORLEN - Zwierzyniec Duzy",
    "lat": "51.509300",
    "lng": "19.385500",
    "address": "- 4",
    "city": "Zwierzyniec",
    "postcode": "97-403",
    "telephone": "(44) 6311374"
  },
  {
    "id": 461,
    "brand": "ORLEN",
    "name": "7639 ORLEN - Kajew",
    "lat": "52.274800",
    "lng": "19.165400",
    "address": "- 124B",
    "city": "Kajew",
    "postcode": "99-340",
    "telephone": "242 523 150"
  },
  {
    "id": 463,
    "brand": "ORLEN",
    "name": "7573 ORLEN - Nowa Wies",
    "lat": "52.587790",
    "lng": "19.001550",
    "address": "Jana Pawla II 33",
    "city": "Nowa Wies",
    "postcode": "87-853",
    "telephone": "800 100 110"
  },
  {
    "id": 464,
    "brand": "ORLEN",
    "name": "7129 ORLEN - Barcin",
    "lat": "52.870070",
    "lng": "17.948172",
    "address": "Barcin Wies 1",
    "city": "Barcin",
    "postcode": "88-190",
    "telephone": "(52)3832154"
  },
  {
    "id": 466,
    "brand": "ORLEN",
    "name": "7267 ORLEN - Lyszkowice",
    "lat": "51.985283",
    "lng": "19.910814",
    "address": "Koscielna 9",
    "city": "Lyszkowice",
    "postcode": "99-420",
    "telephone": "46 838 89 10"
  },
  {
    "id": 467,
    "brand": "ORLEN",
    "name": "7297 ORLEN - Cerekwica",
    "lat": "52.515897",
    "lng": "16.694906",
    "address": "Szamotulska 11",
    "city": "Cerekwica",
    "postcode": "62-090",
    "telephone": "509 512 135"
  },
  {
    "id": 469,
    "brand": "ORLEN",
    "name": "7300 ORLEN - Janow Lubelski",
    "lat": "50.694374",
    "lng": "22.419779",
    "address": "Bohaterow Porytowego Wzgorza 40A",
    "city": "Janow Lubelski",
    "postcode": "23-300",
    "telephone": "---"
  },
  {
    "id": 474,
    "brand": "ORLEN",
    "name": "7166 ORLEN - Kozienice",
    "lat": "51.575182",
    "lng": "21.566193",
    "address": "Lubelska 82a",
    "city": "Kozienice",
    "postcode": "26-900",
    "telephone": "486 110 580"
  },
  {
    "id": 477,
    "brand": "ORLEN",
    "name": "7227 ORLEN - Nisko",
    "lat": "50.522991",
    "lng": "22.133120",
    "address": "Sandomierska 18B",
    "city": "Nisko",
    "postcode": "37-400",
    "telephone": "508 042 684"
  },
  {
    "id": 478,
    "brand": "ORLEN",
    "name": "7245 ORLEN - Polaki",
    "lat": "52.196199",
    "lng": "22.048256",
    "address": "Polaki 33D",
    "city": "Polaki",
    "postcode": "08-130",
    "telephone": "256 414 628"
  },
  {
    "id": 481,
    "brand": "ORLEN",
    "name": "7548 ORLEN - Gora Kalwaria",
    "lat": "51.986851",
    "lng": "21.190846",
    "address": "Rybie 4",
    "city": "Gora Kalwaria",
    "postcode": "05-530",
    "telephone": "501 268 422"
  },
  {
    "id": 482,
    "brand": "ORLEN",
    "name": "7547 ORLEN - Gomulin Kolonia",
    "lat": "51.415425",
    "lng": "19.570737",
    "address": "Trybunalska 25",
    "city": "Gomulin-Kolonia",
    "postcode": "97-371",
    "telephone": "446 153 409"
  },
  {
    "id": 483,
    "brand": "ORLEN",
    "name": "7086 ORLEN - Krzeszowice",
    "lat": "50.132409",
    "lng": "19.644719",
    "address": "Kosciuszki 59",
    "city": "Krzeszowice",
    "postcode": "32-065",
    "telephone": "122 826 428"
  },
  {
    "id": 484,
    "brand": "ORLEN",
    "name": "7523 ORLEN - Nowy Sacz",
    "lat": "49.586397",
    "lng": "20.674341",
    "address": "Wegierska 201",
    "city": "Nowy Sacz",
    "postcode": "33-300",
    "telephone": "184 711 874"
  },
  {
    "id": 486,
    "brand": "ORLEN",
    "name": "7197 ORLEN - Klobuck",
    "lat": "50.913273",
    "lng": "18.901762",
    "address": "Gornicza 1",
    "city": "Klobuck",
    "postcode": "42-100",
    "telephone": "506 362 130"
  },
  {
    "id": 488,
    "brand": "ORLEN",
    "name": "7308 ORLEN - Tymowa",
    "lat": "49.854352",
    "lng": "20.643658",
    "address": "Tymowa 420",
    "city": "Tymowa",
    "postcode": "32-860",
    "telephone": "146 860 508"
  },
  {
    "id": 489,
    "brand": "ORLEN",
    "name": "7033 ORLEN - Elzbiecin",
    "lat": "50.514964",
    "lng": "20.726359",
    "address": "- 33",
    "city": "Elzbiecin",
    "postcode": "28-100",
    "telephone": "(041) 3709840"
  },
  {
    "id": 490,
    "brand": "ORLEN",
    "name": "7365 ORLEN - Gora",
    "lat": "51.662747",
    "lng": "16.566840",
    "address": "Wroclawska 80",
    "city": "Gora",
    "postcode": "56-200",
    "telephone": "655 253 016"
  },
  {
    "id": 492,
    "brand": "ORLEN",
    "name": "7387 ORLEN - Wloclawek",
    "lat": "52.650200",
    "lng": "19.142100",
    "address": "Plocka 172A",
    "city": "Wloclawek",
    "postcode": "87-800",
    "telephone": "(054) 2339191"
  },
  {
    "id": 494,
    "brand": "ORLEN",
    "name": "7632 ORLEN - Sobkow",
    "lat": "50.698023",
    "lng": "20.460424",
    "address": "Kielecka 268/4",
    "city": "Sobkow",
    "postcode": "28-305",
    "telephone": "(41 ) 387 14 53"
  },
  {
    "id": 496,
    "brand": "ORLEN",
    "name": "7310 ORLEN - Kielce",
    "lat": "50.896234",
    "lng": "20.596156",
    "address": "Batalionow Chlopskich 82",
    "city": "Kielce",
    "postcode": "25-671",
    "telephone": "(41 ) 368 49 55"
  },
  {
    "id": 498,
    "brand": "ORLEN",
    "name": "7462 ORLEN - Wilczyce",
    "lat": "51.170518",
    "lng": "16.041863",
    "address": "- 55",
    "city": "Wilczyce",
    "postcode": "59-223",
    "telephone": "605 823 048"
  },
  {
    "id": 499,
    "brand": "ORLEN",
    "name": "7470 ORLEN - Rogozno",
    "lat": "52.756899",
    "lng": "16.978008",
    "address": "Aleje Marszalka Pilsudskiego 34",
    "city": "Rogozno",
    "postcode": "64-610",
    "telephone": "(67 ) 261 41 20"
  },
  {
    "id": 500,
    "brand": "ORLEN",
    "name": "7126 ORLEN - Porosly",
    "lat": "53.148122",
    "lng": "23.057939",
    "address": "Uslugowa  6",
    "city": "Porosly",
    "postcode": "16-070",
    "telephone": "856 636 061"
  },
  {
    "id": 502,
    "brand": "ORLEN",
    "name": "7095 ORLEN - Tarnow",
    "lat": "49.996700",
    "lng": "20.985300",
    "address": "Tuchowska 25",
    "city": "Tarnow",
    "postcode": "33-100",
    "telephone": "146 268 872"
  },
  {
    "id": 504,
    "brand": "ORLEN",
    "name": "7490 ORLEN - Gromada",
    "lat": "50.563204",
    "lng": "22.694321",
    "address": "Gromada 165",
    "city": "Gromada",
    "postcode": "23-400",
    "telephone": "846 884 646"
  },
  {
    "id": 505,
    "brand": "ORLEN",
    "name": "7493 ORLEN - Witnica",
    "lat": "52.675211",
    "lng": "14.918404",
    "address": "Gorzowska 50",
    "city": "Witnica",
    "postcode": "66-460",
    "telephone": "95 728 45 36"
  },
  {
    "id": 507,
    "brand": "ORLEN",
    "name": "7420 ORLEN - Jakac Dworna",
    "lat": "53.000026",
    "lng": "21.930149",
    "address": "Jakac Dworna 33",
    "city": "Jakac Dworna",
    "postcode": "18-411",
    "telephone": "503 772 986"
  },
  {
    "id": 508,
    "brand": "ORLEN",
    "name": "7625 ORLEN - Lomza",
    "lat": "53.168431",
    "lng": "22.084975",
    "address": "Szosa Zambrowska 100",
    "city": "Lomza",
    "postcode": "18-400",
    "telephone": "862 125 004"
  },
  {
    "id": 514,
    "brand": "ORLEN",
    "name": "7635 ORLEN - Krakow",
    "lat": "50.037328",
    "lng": "20.025067",
    "address": "plk. Stanislawa Dabka 30",
    "city": "Krakow",
    "postcode": "30-731",
    "telephone": "500 455 443"
  },
  {
    "id": 516,
    "brand": "ORLEN",
    "name": "7449 ORLEN - Paparzyn",
    "lat": "53.365343",
    "lng": "18.636482",
    "address": "Paparzyn 83",
    "city": "Paparzyn",
    "postcode": "86-212",
    "telephone": "566 865 522"
  },
  {
    "id": 518,
    "brand": "ORLEN",
    "name": "7333 ORLEN - Krakow",
    "lat": "50.029322",
    "lng": "19.912749",
    "address": "Grota Roweckiego 33",
    "city": "Krakow",
    "postcode": "30-384",
    "telephone": "668 323 823"
  },
  {
    "id": 521,
    "brand": "ORLEN",
    "name": "7577 ORLEN - Proszowki",
    "lat": "50.009496",
    "lng": "20.431004",
    "address": "- 125",
    "city": "Proszowki",
    "postcode": "32-700",
    "telephone": "602 758 453"
  },
  {
    "id": 522,
    "brand": "ORLEN",
    "name": "7371 ORLEN - Stryszawa",
    "lat": "49.731374",
    "lng": "19.523293",
    "address": "Stryszawa 288D",
    "city": "Stryszawa",
    "postcode": "34-205",
    "telephone": "338 747 514"
  },
  {
    "id": 526,
    "brand": "ORLEN",
    "name": "7023 ORLEN - Krotoszyn",
    "lat": "51.712709",
    "lng": "17.438524",
    "address": "Kozminska  124",
    "city": "Krotoszyn",
    "postcode": "63-700",
    "telephone": "627 226 752"
  },
  {
    "id": 529,
    "brand": "ORLEN",
    "name": "7574 ORLEN - Pasym",
    "lat": "53.638038",
    "lng": "20.776626",
    "address": "Jana Pawla II 15a",
    "city": "Pasym",
    "postcode": "12-130",
    "telephone": "896 241 126"
  },
  {
    "id": 530,
    "brand": "ORLEN",
    "name": "7248 ORLEN - Krasnystaw",
    "lat": "50.994880",
    "lng": "23.141481",
    "address": "Okrzei 125",
    "city": "Krasnystaw",
    "postcode": "22-300",
    "telephone": "825 757 634"
  },
  {
    "id": 531,
    "brand": "ORLEN",
    "name": "7581 ORLEN - Lelice",
    "lat": "52.743153",
    "lng": "19.761850",
    "address": "Plocka 5",
    "city": "Lelice",
    "postcode": "09-213",
    "telephone": "0"
  },
  {
    "id": 532,
    "brand": "ORLEN",
    "name": "7103 ORLEN - Ostrow Mazowiecka",
    "lat": "52.813761",
    "lng": "21.891353",
    "address": "Lubiejewska 63",
    "city": "Ostrow Mazowiecka",
    "postcode": "07-300",
    "telephone": "296 443 400"
  },
  {
    "id": 533,
    "brand": "ORLEN",
    "name": "7101 ORLEN - Lomza",
    "lat": "53.166264",
    "lng": "22.058010",
    "address": "Al. Pilsudskiego 115A",
    "city": "Lomza",
    "postcode": "18-400",
    "telephone": "862 199 077"
  },
  {
    "id": 534,
    "brand": "ORLEN",
    "name": "7263 ORLEN - Borek Wielkopolski",
    "lat": "51.914700",
    "lng": "17.229486",
    "address": "Powstancow wielkopolskich 26A",
    "city": "Borek Wielkopolski",
    "postcode": "63-800",
    "telephone": "655 716 037"
  },
  {
    "id": 536,
    "brand": "ORLEN",
    "name": "7521 ORLEN - Syrynia",
    "lat": "50.015647",
    "lng": "18.329659",
    "address": "Raciborska 2 F",
    "city": "Syrynia",
    "postcode": "44-361",
    "telephone": "324 532 035"
  },
  {
    "id": 537,
    "brand": "ORLEN",
    "name": "7189 ORLEN - Grajewo",
    "lat": "53.629400",
    "lng": "22.414200",
    "address": "Pilsudskiego 55",
    "city": "Grajewo",
    "postcode": "19-200",
    "telephone": "862 723 637"
  },
  {
    "id": 539,
    "brand": "ORLEN",
    "name": "7606 ORLEN - Torun",
    "lat": "52.991058",
    "lng": "18.648446",
    "address": "Wloclawska 91D",
    "city": "Torun",
    "postcode": "87-100",
    "telephone": "+48601471772"
  },
  {
    "id": 541,
    "brand": "ORLEN",
    "name": "7156 ORLEN - Sierpc",
    "lat": "52.845267",
    "lng": "19.670850",
    "address": "Plocka 48A",
    "city": "Sierpc",
    "postcode": "09-200",
    "telephone": "242 751 794"
  },
  {
    "id": 542,
    "brand": "ORLEN",
    "name": "7215 ORLEN - Jaksice",
    "lat": "50.328300",
    "lng": "20.034600",
    "address": "Jaksice 428",
    "city": "Miechow",
    "postcode": "32-200",
    "telephone": "413 833 201"
  },
  {
    "id": 544,
    "brand": "ORLEN",
    "name": "7168 ORLEN - Ledziny",
    "lat": "50.146190",
    "lng": "19.108002",
    "address": "Droga Krajowa 1 b/n",
    "city": "Ledziny",
    "postcode": "43-140",
    "telephone": "323 266 921"
  },
  {
    "id": 545,
    "brand": "ORLEN",
    "name": "7037 ORLEN - Wolsztyn",
    "lat": "52.121333",
    "lng": "16.127583",
    "address": "Zrodlana 34",
    "city": "Wolsztyn",
    "postcode": "64-200",
    "telephone": "683 470 909"
  },
  {
    "id": 547,
    "brand": "ORLEN",
    "name": "7089 ORLEN - Raciazek",
    "lat": "52.844206",
    "lng": "18.790674",
    "address": "Pole 16a",
    "city": "Raciazek",
    "postcode": "87-721",
    "telephone": "(054) 2836177"
  },
  {
    "id": 549,
    "brand": "ORLEN",
    "name": "7422 ORLEN - Osla",
    "lat": "51.303448",
    "lng": "15.725631",
    "address": "- 1G",
    "city": "Osla",
    "postcode": "59-706",
    "telephone": "757 382 822"
  },
  {
    "id": 550,
    "brand": "ORLEN",
    "name": "7336 ORLEN - Wadowice",
    "lat": "49.875752",
    "lng": "19.512803",
    "address": "Wenecja 6",
    "city": "Wadowice",
    "postcode": "34-100",
    "telephone": "692 001 003"
  },
  {
    "id": 554,
    "brand": "ORLEN",
    "name": "7081 ORLEN - Kadlubia",
    "lat": "51.655600",
    "lng": "15.147800",
    "address": "Zielonogorska - obwodnica Zar 78A",
    "city": "Kadlubia",
    "postcode": "68-200",
    "telephone": "(068) 363 47 46"
  },
  {
    "id": 556,
    "brand": "ORLEN",
    "name": "7554 ORLEN - Kowalow",
    "lat": "52.405207",
    "lng": "14.761741",
    "address": "Radowska 27",
    "city": "Kowalow",
    "postcode": "69-110",
    "telephone": "957 183 064"
  },
  {
    "id": 557,
    "brand": "ORLEN",
    "name": "7403 ORLEN - Kruszow",
    "lat": "51.572633",
    "lng": "19.580027",
    "address": "Trybunalska 4",
    "city": "Kruszow",
    "postcode": "95-080",
    "telephone": "503 085 223"
  },
  {
    "id": 558,
    "brand": "ORLEN",
    "name": "7442 ORLEN - Biala Podlaska",
    "lat": "52.041474",
    "lng": "23.109548",
    "address": "Ksiecia Witolda 15",
    "city": "Biala Podlaska",
    "postcode": "21-500",
    "telephone": "(83)3431944"
  },
  {
    "id": 560,
    "brand": "ORLEN",
    "name": "7401 ORLEN - Zieleniec",
    "lat": "50.914100",
    "lng": "17.834600",
    "address": "brak 64",
    "city": "Pokoj",
    "postcode": "46-034",
    "telephone": "77 402 12 81"
  },
  {
    "id": 561,
    "brand": "ORLEN",
    "name": "7339 ORLEN - Slupsk",
    "lat": "54.452584",
    "lng": "17.011094",
    "address": "Przemyslowa 34",
    "city": "Slupsk",
    "postcode": "76-200",
    "telephone": "534 072 760"
  },
  {
    "id": 562,
    "brand": "ORLEN",
    "name": "7445 ORLEN - Pluznica",
    "lat": "53.292028",
    "lng": "18.776364",
    "address": "- 62A",
    "city": "Pluznica",
    "postcode": "87-214",
    "telephone": "566 887 346"
  },
  {
    "id": 563,
    "brand": "ORLEN",
    "name": "7345 ORLEN - Inowlodz",
    "lat": "51.519291",
    "lng": "20.230769",
    "address": "Klasztorna 37",
    "city": "Inowlodz",
    "postcode": "97-215",
    "telephone": "44 710 10 77"
  },
  {
    "id": 564,
    "brand": "ORLEN",
    "name": "7271 ORLEN - Pieszyce",
    "lat": "50.716397",
    "lng": "16.583690",
    "address": "Piskorzowska 3",
    "city": "Pieszyce",
    "postcode": "58-250",
    "telephone": "748 365 113"
  },
  {
    "id": 566,
    "brand": "ORLEN",
    "name": "7592 ORLEN - Zagan",
    "lat": "51.614096",
    "lng": "15.306080",
    "address": "Przyjaciol Zolnierza 23",
    "city": "Zagan",
    "postcode": "68-100",
    "telephone": "512 166 727"
  },
  {
    "id": 568,
    "brand": "ORLEN",
    "name": "7011 ORLEN - Libiaz",
    "lat": "50.093113",
    "lng": "19.298744",
    "address": "Krakowska 86",
    "city": "Libiaz",
    "postcode": "32-590",
    "telephone": "(032) 6271054"
  },
  {
    "id": 569,
    "brand": "ORLEN",
    "name": "7346 ORLEN - Czernichow",
    "lat": "49.992003",
    "lng": "19.689526",
    "address": "Przemyslowa  2",
    "city": "Czernichow",
    "postcode": "32-070",
    "telephone": "122 702 795"
  },
  {
    "id": 570,
    "brand": "ORLEN",
    "name": "7463 ORLEN - Zawada",
    "lat": "50.719259",
    "lng": "18.002343",
    "address": "Turawska 1a",
    "city": "Zawada",
    "postcode": "46-022",
    "telephone": "515-321-444"
  },
  {
    "id": 571,
    "brand": "ORLEN",
    "name": "7343 ORLEN - Dobra",
    "lat": "51.904230",
    "lng": "18.610326",
    "address": "Kilinskiego 154",
    "city": "Dobra",
    "postcode": "62-730",
    "telephone": "511 509 757"
  },
  {
    "id": 574,
    "brand": "ORLEN",
    "name": "7438 ORLEN - Ozimek",
    "lat": "50.675290",
    "lng": "18.214999",
    "address": "Kolejowa -",
    "city": "Ozimek",
    "postcode": "46-040",
    "telephone": "605 314 614"
  },
  {
    "id": 577,
    "brand": "ORLEN",
    "name": "7327 ORLEN - Koszecin",
    "lat": "50.633842",
    "lng": "18.845459",
    "address": "Ligonia 11i",
    "city": "Koszecin",
    "postcode": "42-286",
    "telephone": "604 944 950"
  },
  {
    "id": 578,
    "brand": "ORLEN",
    "name": "7312 ORLEN - Bialka Tatrzanska",
    "lat": "49.365164",
    "lng": "20.116190",
    "address": "Kaniowka 1A",
    "city": "Bialka Tatrzanska",
    "postcode": "34-405",
    "telephone": "182 077 447"
  },
  {
    "id": 579,
    "brand": "ORLEN",
    "name": "7096 ORLEN - Czeladz",
    "lat": "50.296526",
    "lng": "19.102110",
    "address": "Rzemieslnicza 1",
    "city": "Czeladz",
    "postcode": "41-253",
    "telephone": "322 657 896"
  },
  {
    "id": 580,
    "brand": "ORLEN",
    "name": "7262 ORLEN - Kozlow",
    "lat": "52.161807",
    "lng": "20.130080",
    "address": "Kozlow Nowy bn",
    "city": "Kozlow Biskupi",
    "postcode": "96-513",
    "telephone": "572 770 400"
  },
  {
    "id": 581,
    "brand": "ORLEN",
    "name": "7595 ORLEN - Renice",
    "lat": "52.944673",
    "lng": "14.952219",
    "address": "- 59",
    "city": "Renice",
    "postcode": "74-300",
    "telephone": "605 353 230"
  },
  {
    "id": 582,
    "brand": "ORLEN",
    "name": "7171 ORLEN - Pniewo",
    "lat": "52.649505",
    "lng": "21.244951",
    "address": "Pultuska 17",
    "city": "Pniewo",
    "postcode": "07-214",
    "telephone": "297 417 010"
  },
  {
    "id": 584,
    "brand": "ORLEN",
    "name": "7149 ORLEN - Kalwaria Zebrzydowska",
    "lat": "49.872221",
    "lng": "19.662078",
    "address": "Jagiellonska 60D",
    "city": "Kalwaria Zebrzydowska",
    "postcode": "34-130",
    "telephone": "338 766 383"
  },
  {
    "id": 586,
    "brand": "ORLEN",
    "name": "7512 ORLEN - Nowe Kurowo",
    "lat": "52.857445",
    "lng": "15.697854",
    "address": "Nowe Kurowo 25B",
    "city": "Stare Kurowo",
    "postcode": "66-540",
    "telephone": "664 317 114"
  },
  {
    "id": 587,
    "brand": "ORLEN",
    "name": "7288 ORLEN - Kleszczow",
    "lat": "51.220324",
    "lng": "19.310731",
    "address": "Glowna 37",
    "city": "Kleszczow",
    "postcode": "97-410",
    "telephone": "447 313 727"
  },
  {
    "id": 591,
    "brand": "ORLEN",
    "name": "7461 ORLEN - Olkusz",
    "lat": "50.270726",
    "lng": "19.589383",
    "address": "Aleja 1000-lecia 1J",
    "city": "Olkusz",
    "postcode": "32-300",
    "telephone": "600 430 343"
  },
  {
    "id": 593,
    "brand": "ORLEN",
    "name": "7017 ORLEN - Zernica",
    "lat": "50.248392",
    "lng": "18.623006",
    "address": "Gliwicka 3",
    "city": "Zernica",
    "postcode": "44-144",
    "telephone": "(032) 3362752"
  },
  {
    "id": 594,
    "brand": "ORLEN",
    "name": "7441 ORLEN - Miejsce Piastowe",
    "lat": "49.651210",
    "lng": "21.821251",
    "address": "Zalesie 5c",
    "city": "Miejsce Piastowe",
    "postcode": "38-430",
    "telephone": "134 353 476"
  },
  {
    "id": 595,
    "brand": "ORLEN",
    "name": "7415 ORLEN - Szewce",
    "lat": "51.213571",
    "lng": "16.966066",
    "address": "Rzemieslnicza 1",
    "city": "Szewce",
    "postcode": "55-114",
    "telephone": "713 101 511"
  },
  {
    "id": 597,
    "brand": "ORLEN",
    "name": "7184 ORLEN - Lipusz",
    "lat": "54.087897",
    "lng": "17.800933",
    "address": "Koscierska 7",
    "city": "Balachy",
    "postcode": "83-424",
    "telephone": "(058) 6880940"
  },
  {
    "id": 602,
    "brand": "ORLEN",
    "name": "7174 ORLEN - Wieliszew",
    "lat": "52.445097",
    "lng": "20.978020",
    "address": "Modlinska 13",
    "city": "Wieliszew",
    "postcode": "05-135",
    "telephone": "227 822 255"
  },
  {
    "id": 603,
    "brand": "ORLEN",
    "name": "7076 ORLEN - Ciasna",
    "lat": "50.748434",
    "lng": "18.613808",
    "address": "Fiolkowa 1",
    "city": "Ciasna",
    "postcode": "42-793",
    "telephone": "697 902 010"
  },
  {
    "id": 605,
    "brand": "ORLEN",
    "name": "7455 ORLEN - Biala",
    "lat": "51.280172",
    "lng": "18.413901",
    "address": "Radomina 9",
    "city": "Radomina",
    "postcode": "98-350",
    "telephone": "43 841 0832"
  },
  {
    "id": 609,
    "brand": "ORLEN",
    "name": "0353 ORLEN - Glogow",
    "lat": "51.664090",
    "lng": "16.047500",
    "address": "Sikorskiego 66",
    "city": "Glogow",
    "postcode": "67-200",
    "telephone": "+48 24 256 0353"
  },
  {
    "id": 610,
    "brand": "ORLEN",
    "name": "0793 ORLEN - Ryki",
    "lat": "51.630940",
    "lng": "21.924920",
    "address": "Warszawska 47A",
    "city": "Ryki",
    "postcode": "08-500",
    "telephone": "+48 24 256 0793"
  },
  {
    "id": 611,
    "brand": "ORLEN",
    "name": "0953 ORLEN - Sierakow",
    "lat": "52.644837",
    "lng": "16.060691",
    "address": "Okreg Miedzychodzki 1",
    "city": "Sierakow",
    "postcode": "64-410",
    "telephone": "+48 24 256 0953"
  },
  {
    "id": 612,
    "brand": "ORLEN",
    "name": "0063 ORLEN - Gdansk",
    "lat": "54.359160",
    "lng": "18.640600",
    "address": "Dabrowskiego 4",
    "city": "Gdansk",
    "postcode": "80-802",
    "telephone": "+48 24 256 0063"
  },
  {
    "id": 614,
    "brand": "ORLEN",
    "name": "0114 ORLEN - Zawiercie",
    "lat": "50.487105",
    "lng": "19.403519",
    "address": "Wojska Polskiego 48",
    "city": "Zawiercie",
    "postcode": "42-400",
    "telephone": "+48 24 256 0114"
  },
  {
    "id": 615,
    "brand": "ORLEN",
    "name": "1241 ORLEN - Ropa",
    "lat": "49.605284",
    "lng": "21.037526",
    "address": "Ropa ",
    "city": "Ropa",
    "postcode": "38-312",
    "telephone": "+48 24 256 1241"
  },
  {
    "id": 616,
    "brand": "ORLEN",
    "name": "0446 ORLEN - Goleniow",
    "lat": "53.568570",
    "lng": "14.832170",
    "address": "Wolinska 2",
    "city": "Goleniow",
    "postcode": "72-100",
    "telephone": "+48 24 256 0446"
  },
  {
    "id": 617,
    "brand": "ORLEN",
    "name": "1065 ORLEN - Barcin",
    "lat": "52.857540",
    "lng": "17.941120",
    "address": "Polna 1",
    "city": "Barcin",
    "postcode": "88-190",
    "telephone": "+48 24 256 1065"
  },
  {
    "id": 618,
    "brand": "ORLEN",
    "name": "4231 ORLEN - Bychawa",
    "lat": "51.017660",
    "lng": "22.524500",
    "address": "11 Listopada 15",
    "city": "Bychawa",
    "postcode": "23-100",
    "telephone": "+48 24 256 4231"
  },
  {
    "id": 619,
    "brand": "ORLEN",
    "name": "1446 ORLEN - Sedziszow Malopol",
    "lat": "50.061440",
    "lng": "21.689810",
    "address": "Gora Ropczycka ",
    "city": "Sedziszow Malopolski",
    "postcode": "39-120",
    "telephone": "+48 24 256 1446"
  },
  {
    "id": 620,
    "brand": "ORLEN",
    "name": "0141 ORLEN - Rajcza",
    "lat": "49.499769",
    "lng": "19.100509",
    "address": "Ujsolska 16a",
    "city": "Rajcza",
    "postcode": "34-370",
    "telephone": "+48 24 256 0141"
  },
  {
    "id": 622,
    "brand": "ORLEN",
    "name": "0792 ORLEN - Myszyniec",
    "lat": "53.385200",
    "lng": "21.338870",
    "address": "Plac Wolnosci  60A",
    "city": "Myszyniec",
    "postcode": "07-430",
    "telephone": "242 560 792"
  },
  {
    "id": 624,
    "brand": "ORLEN",
    "name": "0565 ORLEN - Warszawa",
    "lat": "52.234610",
    "lng": "21.036250",
    "address": "Aleja 3 Maja 1A",
    "city": "Warszawa",
    "postcode": "00-401",
    "telephone": "+48 24 256 0565"
  },
  {
    "id": 626,
    "brand": "ORLEN",
    "name": "1159 ORLEN - Kalisz",
    "lat": "51.760510",
    "lng": "18.104120",
    "address": "Lodzka 31",
    "city": "Kalisz",
    "postcode": "62-800",
    "telephone": "+48 24 256 1159"
  },
  {
    "id": 628,
    "brand": "ORLEN",
    "name": "1458 ORLEN - Szczecin",
    "lat": "53.454120",
    "lng": "14.537210",
    "address": "Chopina 16",
    "city": "Szczecin",
    "postcode": "71-450",
    "telephone": "+48 24 256 1458"
  },
  {
    "id": 629,
    "brand": "ORLEN",
    "name": "4229 ORLEN - Jablonna",
    "lat": "51.107480",
    "lng": "22.586810",
    "address": ". 42a",
    "city": "Jablonna-Majatek",
    "postcode": "23-114",
    "telephone": "+48 24 256 4229"
  },
  {
    "id": 631,
    "brand": "ORLEN",
    "name": "1087 ORLEN - Elblag",
    "lat": "54.165540",
    "lng": "19.377320",
    "address": "Nowodworska 45 A",
    "city": "Elblag",
    "postcode": "82-300",
    "telephone": "+48 24 256 1087"
  },
  {
    "id": 632,
    "brand": "ORLEN",
    "name": "4444 ORLEN - Kielce",
    "lat": "50.882634",
    "lng": "20.578382",
    "address": "Szajnowicza Iwanowa 22",
    "city": "Kielce",
    "postcode": "25-636",
    "telephone": "+48 24 256 4444; 24 2864444"
  },
  {
    "id": 633,
    "brand": "ORLEN",
    "name": "0752 ORLEN - Szalejow Dolny",
    "lat": "50.437820",
    "lng": "16.610380",
    "address": " 121",
    "city": "Szalejow Dolny",
    "postcode": "57-300",
    "telephone": "+48 24 256 0752"
  },
  {
    "id": 634,
    "brand": "ORLEN",
    "name": "1459 ORLEN - Kliniska Wielkie",
    "lat": "53.464500",
    "lng": "14.787100",
    "address": "Kolejowa  16",
    "city": "Kliniska Wielkie",
    "postcode": "72-123",
    "telephone": "+48 24 256 1459"
  },
  {
    "id": 635,
    "brand": "ORLEN",
    "name": "0932 ORLEN - Czlopa",
    "lat": "53.080940",
    "lng": "16.113460",
    "address": "Zwyciestwa WP 40",
    "city": "Czlopa",
    "postcode": "78-630",
    "telephone": "+48 24 256 0932"
  },
  {
    "id": 636,
    "brand": "ORLEN",
    "name": "0772 ORLEN - Piwniczna",
    "lat": "49.449180",
    "lng": "20.702080",
    "address": "Krakowska 27",
    "city": "Piwniczna-Zdroj",
    "postcode": "33-350",
    "telephone": "+48 24 256 0772"
  },
  {
    "id": 637,
    "brand": "ORLEN",
    "name": "0581 ORLEN - Krakow",
    "lat": "50.055210",
    "lng": "19.925158",
    "address": "Wloczkow 3",
    "city": "Krakow",
    "postcode": "30-103",
    "telephone": "+48 24 256 0581"
  },
  {
    "id": 639,
    "brand": "ORLEN",
    "name": "0731 ORLEN - Swidnica",
    "lat": "50.855480",
    "lng": "16.509670",
    "address": "Szarych Szeregow 4",
    "city": "Swidnica",
    "postcode": "58-100",
    "telephone": "+48 24 256 0731"
  },
  {
    "id": 641,
    "brand": "ORLEN",
    "name": "0764 ORLEN - Golub-Dobrzyn",
    "lat": "53.110510",
    "lng": "19.054180",
    "address": "Pilsudskiego 15",
    "city": "Golub-Dobrzyn",
    "postcode": "87-400",
    "telephone": "+48 24 256 0764"
  },
  {
    "id": 643,
    "brand": "ORLEN",
    "name": "4041 ORLEN - Jarocin",
    "lat": "51.956010",
    "lng": "17.518670",
    "address": "Wojska Polskiego 135 A",
    "city": "Jarocin",
    "postcode": "63-200",
    "telephone": "+48 24 256 4041"
  },
  {
    "id": 646,
    "brand": "ORLEN",
    "name": "0993 ORLEN - Plock",
    "lat": "52.545890",
    "lng": "19.707114",
    "address": "Pilsudskiego 2",
    "city": "Plock",
    "postcode": "09-402",
    "telephone": "+48 24 256 0993"
  },
  {
    "id": 647,
    "brand": "ORLEN",
    "name": "0257 ORLEN - Opole",
    "lat": "50.669700",
    "lng": "17.913200",
    "address": "Al. Pilsudskiego 4",
    "city": "Opole",
    "postcode": "45-706",
    "telephone": "+48 24 256 0257"
  },
  {
    "id": 648,
    "brand": "ORLEN",
    "name": "0047 ORLEN - Krynica",
    "lat": "49.434170",
    "lng": "20.950570",
    "address": "Stara Droga 5",
    "city": "Krynica-Zdroj",
    "postcode": "33-380",
    "telephone": "+48 24 256 0047"
  },
  {
    "id": 650,
    "brand": "ORLEN",
    "name": "1139 ORLEN - Jedwabne",
    "lat": "53.290870",
    "lng": "22.299596",
    "address": "Przytulska 52",
    "city": "Jedwabne",
    "postcode": "18-420",
    "telephone": "+48 24 256 1139"
  },
  {
    "id": 651,
    "brand": "ORLEN",
    "name": "0774 ORLEN - Swidnik",
    "lat": "51.214103",
    "lng": "22.687828",
    "address": "Lotnikow Polskich 60",
    "city": "Swidnik",
    "postcode": "21-040",
    "telephone": "+48 24 256 0774"
  },
  {
    "id": 652,
    "brand": "ORLEN",
    "name": "0683 ORLEN - Tluszcz",
    "lat": "52.424500",
    "lng": "21.424600",
    "address": "Batorego 4",
    "city": "Tluszcz",
    "postcode": "05-240",
    "telephone": "+48 24 256 0683"
  },
  {
    "id": 653,
    "brand": "ORLEN",
    "name": "0008 ORLEN - Poznan",
    "lat": "52.411364",
    "lng": "16.933376",
    "address": "Male Garbary 1A",
    "city": "Poznan",
    "postcode": "61-756",
    "telephone": "+48 24 256 0008"
  },
  {
    "id": 654,
    "brand": "ORLEN",
    "name": "4016 ORLEN - Gniewkowo",
    "lat": "52.892920",
    "lng": "18.401960",
    "address": "Inowroclawska 4a",
    "city": "Gniewkowo",
    "postcode": "88-140",
    "telephone": "+48 24 256 4016"
  },
  {
    "id": 655,
    "brand": "ORLEN",
    "name": "0421 ORLEN - Kamien Pomorski",
    "lat": "53.961110",
    "lng": "14.785270",
    "address": "Szczecinska 42a",
    "city": "Kamien Pomorski",
    "postcode": "72-400",
    "telephone": "+48 24 256 0421"
  },
  {
    "id": 657,
    "brand": "ORLEN",
    "name": "0857 ORLEN - Lobez",
    "lat": "53.644520",
    "lng": "15.615310",
    "address": "Przemyslowa 1",
    "city": "Lobez",
    "postcode": "73-150",
    "telephone": "+48 24 256 0857"
  },
  {
    "id": 661,
    "brand": "ORLEN",
    "name": "1330 ORLEN - Konin",
    "lat": "52.234862",
    "lng": "18.267808",
    "address": "Torowa 22",
    "city": "Konin",
    "postcode": "62-510",
    "telephone": "+48 24 256 1330"
  },
  {
    "id": 662,
    "brand": "ORLEN",
    "name": "0916 ORLEN  - Skorcz",
    "lat": "53.791950",
    "lng": "18.514977",
    "address": "Pomorska 16",
    "city": "Skorcz",
    "postcode": "83-220",
    "telephone": "+48 24 256 0916"
  },
  {
    "id": 663,
    "brand": "ORLEN",
    "name": "0796 ORLEN - Kolbiel",
    "lat": "52.060670",
    "lng": "21.469630",
    "address": "1-go Maja 5",
    "city": "Kolbiel",
    "postcode": "05-340",
    "telephone": "+48 24 256 0796"
  },
  {
    "id": 665,
    "brand": "ORLEN",
    "name": "0858 ORLEN - Szczecin",
    "lat": "53.461520",
    "lng": "14.594690",
    "address": "Strzalowska 49",
    "city": "Szczecin",
    "postcode": "71-730",
    "telephone": "+48 24 256 0858"
  },
  {
    "id": 666,
    "brand": "ORLEN",
    "name": "0782 ORLEN - Siemianowice Sla",
    "lat": "50.293395",
    "lng": "19.022941",
    "address": "Katowicka 34",
    "city": "Siemianowice Slaskie",
    "postcode": "41-100",
    "telephone": "+48 24 256 0782"
  },
  {
    "id": 667,
    "brand": "ORLEN",
    "name": "0642 ORLEN - Suwalki",
    "lat": "54.071914",
    "lng": "22.933311",
    "address": "Wojska Polskiego 35",
    "city": "Suwalki",
    "postcode": "16-400",
    "telephone": "+48 24 256 0642"
  },
  {
    "id": 669,
    "brand": "ORLEN",
    "name": "0541 ORLEN - Lodz",
    "lat": "51.803300",
    "lng": "19.367740",
    "address": "Szczecinska 20",
    "city": "Lodz",
    "postcode": "91-222",
    "telephone": "+48 24 256 0541"
  },
  {
    "id": 670,
    "brand": "ORLEN",
    "name": "0098 ORLEN - Zabrze",
    "lat": "50.297917",
    "lng": "18.830926",
    "address": "Wolnosci 508",
    "city": "Zabrze",
    "postcode": "41-800",
    "telephone": "+48 24 256 0098"
  },
  {
    "id": 671,
    "brand": "ORLEN",
    "name": "4058 ORLEN - Krzyzowniki",
    "lat": "52.327563",
    "lng": "17.091637",
    "address": "MOP A2 ",
    "city": "Krzyzowniki",
    "postcode": "63-005",
    "telephone": "+48 24 256 4058"
  },
  {
    "id": 672,
    "brand": "ORLEN",
    "name": "1495 ORLEN - Bydgoszcz",
    "lat": "53.150990",
    "lng": "17.907200",
    "address": "Grunwaldzka 293",
    "city": "Bydgoszcz",
    "postcode": "85-438",
    "telephone": "+48 24 256 1495"
  },
  {
    "id": 673,
    "brand": "ORLEN",
    "name": "4216 ORLEN - Krepa",
    "lat": "52.093600",
    "lng": "18.299400",
    "address": " 59",
    "city": "Krepa",
    "postcode": "62-740",
    "telephone": "+48 24 256 4216"
  },
  {
    "id": 674,
    "brand": "ORLEN",
    "name": "4429 ORLEN- Babimost",
    "lat": "52.158306",
    "lng": "15.842418",
    "address": "Kargowska 67",
    "city": "Babimost",
    "postcode": "66-110",
    "telephone": "+48 24 256 4429"
  },
  {
    "id": 676,
    "brand": "ORLEN",
    "name": "0089 ORLEN - Lodz",
    "lat": "51.796950",
    "lng": "19.510360",
    "address": "Brzezinska 30",
    "city": "Lodz",
    "postcode": "92-103",
    "telephone": "+48 24 256 0089"
  },
  {
    "id": 677,
    "brand": "ORLEN",
    "name": "1413 ORLEN - Radom",
    "lat": "51.395360",
    "lng": "21.113260",
    "address": "Maratonska 57",
    "city": "Radom",
    "postcode": "26-600",
    "telephone": "+48 24 256 1413"
  },
  {
    "id": 678,
    "brand": "ORLEN",
    "name": "0603 ORLEN - Slupca",
    "lat": "52.283440",
    "lng": "17.887060",
    "address": "Warszawska 66c",
    "city": "Slupca",
    "postcode": "62-400",
    "telephone": "+48 24 256 0603"
  },
  {
    "id": 679,
    "brand": "ORLEN",
    "name": "4361 ORLEN - Nowy Sacz",
    "lat": "49.602617",
    "lng": "20.727966",
    "address": "Wisniowieckiego 129",
    "city": "Nowy Sacz",
    "postcode": "33-300",
    "telephone": "+48 24 256 4361"
  },
  {
    "id": 682,
    "brand": "ORLEN",
    "name": "0670 ORLEN - Warszawa",
    "lat": "52.216084",
    "lng": "20.881893",
    "address": "Polczynska 119",
    "city": "Warszawa",
    "postcode": "01-304",
    "telephone": "+48 24 256 0670"
  },
  {
    "id": 683,
    "brand": "ORLEN",
    "name": "0250 ORLEN - Brzeg",
    "lat": "50.841780",
    "lng": "17.473430",
    "address": "Karola Szymanowskiego 15",
    "city": "Brzeg",
    "postcode": "49-300",
    "telephone": "+48 24 256 0250"
  },
  {
    "id": 684,
    "brand": "ORLEN",
    "name": "0401 ORLEN - Choszczno",
    "lat": "53.170450",
    "lng": "15.418540",
    "address": "Boh. Warszawy ",
    "city": "Choszczno",
    "postcode": "73-200",
    "telephone": "+48 24 256 0401"
  },
  {
    "id": 687,
    "brand": "ORLEN",
    "name": "0211 ORLEN - Mieszkowice",
    "lat": "52.787620",
    "lng": "14.493760",
    "address": "Warszawska 15",
    "city": "Mieszkowice",
    "postcode": "74-505",
    "telephone": "+48 24 256 0211"
  },
  {
    "id": 688,
    "brand": "ORLEN",
    "name": "0229 ORLEN - Brodnica",
    "lat": "53.250280",
    "lng": "19.400040",
    "address": "18-go Stycznia 1",
    "city": "Brodnica",
    "postcode": "87-300",
    "telephone": "+48 24 256 0229"
  },
  {
    "id": 689,
    "brand": "ORLEN",
    "name": "0600 ORLEN - Poznan",
    "lat": "52.382750",
    "lng": "16.882840",
    "address": "Zgoda 19",
    "city": "Poznan",
    "postcode": "60-122",
    "telephone": "+48 24 256 0600"
  },
  {
    "id": 690,
    "brand": "ORLEN",
    "name": "1220 ORLEN - Kielce",
    "lat": "50.862110",
    "lng": "20.604230",
    "address": "Krakowska 62",
    "city": "Kielce",
    "postcode": "25-701",
    "telephone": "+48 24 286 1220; 24 2862679"
  },
  {
    "id": 691,
    "brand": "ORLEN",
    "name": "0265 ORLEN - Ladek Zdroj",
    "lat": "50.342890",
    "lng": "16.856350",
    "address": "Klodzka 54",
    "city": "Ladek-Zdroj",
    "postcode": "57-540",
    "telephone": "+48 24 256 0265"
  },
  {
    "id": 693,
    "brand": "ORLEN",
    "name": "4211 ORLEN - Werbkowice",
    "lat": "50.755160",
    "lng": "23.784410",
    "address": "Zamojska 13 A",
    "city": "Werbkowice",
    "postcode": "22-550",
    "telephone": "+48 24 256 4211"
  },
  {
    "id": 695,
    "brand": "ORLEN",
    "name": "4047 ORLEN - Czarnkow",
    "lat": "52.895900",
    "lng": "16.551200",
    "address": "Kosciuszki 95 A",
    "city": "Czarnkow",
    "postcode": "64-700",
    "telephone": "+48 24 256 4047"
  },
  {
    "id": 697,
    "brand": "ORLEN",
    "name": "0100 ORLEN - Swidnica",
    "lat": "50.854039",
    "lng": "16.495889",
    "address": "Esperantystow 14",
    "city": "Swidnica",
    "postcode": "58-100",
    "telephone": "+48 24 256 0100"
  },
  {
    "id": 699,
    "brand": "ORLEN",
    "name": "0009 ORLEN - Lodz",
    "lat": "51.782240",
    "lng": "19.483550",
    "address": "Aleja Grzegorza Palki 7",
    "city": "Lodz",
    "postcode": "91-725",
    "telephone": "+48 24 256 0009"
  },
  {
    "id": 700,
    "brand": "ORLEN",
    "name": "4427 ORLEN - Straszyn",
    "lat": "54.277203",
    "lng": "18.589039",
    "address": "Starogardzka 9",
    "city": "Straszyn",
    "postcode": "83-010",
    "telephone": "+48 24 256 4427"
  },
  {
    "id": 701,
    "brand": "ORLEN",
    "name": "0293 ORLEN - Olecko",
    "lat": "54.039740",
    "lng": "22.496950",
    "address": "Wojska Polskiego 1",
    "city": "Olecko",
    "postcode": "19-400",
    "telephone": "+48 24 256 0293"
  },
  {
    "id": 702,
    "brand": "ORLEN",
    "name": "4017 ORLEN - Pniewy",
    "lat": "52.499330",
    "lng": "16.273570",
    "address": "Jakubowska 36",
    "city": "Pniewy",
    "postcode": "62-045",
    "telephone": "+48 24 256 4017"
  },
  {
    "id": 703,
    "brand": "ORLEN",
    "name": "1351 ORLEN - Krosniewice",
    "lat": "52.256480",
    "lng": "19.160230",
    "address": "Poznanska 17",
    "city": "Krosniewice",
    "postcode": "99-340",
    "telephone": "+48 24 256 1351"
  },
  {
    "id": 706,
    "brand": "ORLEN",
    "name": "0810 ORLEN - Wladyslawowo",
    "lat": "54.775920",
    "lng": "18.405400",
    "address": "Gdanska 107",
    "city": "Wladyslawowo",
    "postcode": "84-120",
    "telephone": "+48 24 256 0810"
  },
  {
    "id": 708,
    "brand": "ORLEN",
    "name": "4160 ORLEN - Polanica-Zdroj",
    "lat": "50.408910",
    "lng": "16.516100",
    "address": "Klodzka 5",
    "city": "Polanica-Zdroj",
    "postcode": "57-320",
    "telephone": "+48 24 256 4160"
  },
  {
    "id": 709,
    "brand": "ORLEN",
    "name": "0388 ORLEN - Kalinowka",
    "lat": "51.210881",
    "lng": "22.648711",
    "address": "Piasecka 22",
    "city": "Swidnik",
    "postcode": "21-040",
    "telephone": "+48 24 256 0388"
  },
  {
    "id": 712,
    "brand": "ORLEN",
    "name": "0665 ORLEN - Mosina",
    "lat": "52.252710",
    "lng": "16.854370",
    "address": "Mocka 3",
    "city": "Mosina",
    "postcode": "62-050",
    "telephone": "+48 24 256 0665"
  },
  {
    "id": 713,
    "brand": "ORLEN",
    "name": "4304 ORLEN - Lgota",
    "lat": "50.847419",
    "lng": "19.045183",
    "address": "Czestochowska 90",
    "city": "Lgota",
    "postcode": "42-100",
    "telephone": "+48 24 256 4304"
  },
  {
    "id": 714,
    "brand": "ORLEN",
    "name": "0555 ORLEN - Warszawa",
    "lat": "52.249080",
    "lng": "21.041170",
    "address": "Marcinkowskiego 6",
    "city": "Warszawa",
    "postcode": "03-722",
    "telephone": "242 560 555"
  },
  {
    "id": 715,
    "brand": "ORLEN",
    "name": "0253 ORLEN - Skwierzyna",
    "lat": "52.598740",
    "lng": "15.506240",
    "address": "Miedzyrzecka 1A",
    "city": "Skwierzyna",
    "postcode": "66-440",
    "telephone": "+48 24 256 0253"
  },
  {
    "id": 717,
    "brand": "ORLEN",
    "name": "4269 ORLEN - Koszalin",
    "lat": "54.209410",
    "lng": "16.152710",
    "address": "Morska 150A",
    "city": "Koszalin",
    "postcode": "75-235",
    "telephone": "+48 24 256 4269"
  },
  {
    "id": 718,
    "brand": "ORLEN",
    "name": "1520 ORLEN - Sochocin",
    "lat": "52.692590",
    "lng": "20.475500",
    "address": "Ciechanowska 31 ",
    "city": "Sochocin",
    "postcode": "09-110",
    "telephone": "+48 24 256 1520"
  },
  {
    "id": 719,
    "brand": "ORLEN",
    "name": "0693 ORLEN - Lapy",
    "lat": "52.990107",
    "lng": "22.881625",
    "address": "Wl. Sikorskiego 60",
    "city": "Lapy",
    "postcode": "18-100",
    "telephone": "+48 24 256 0693"
  },
  {
    "id": 720,
    "brand": "ORLEN",
    "name": "4137 ORLEN - Kobylnica",
    "lat": "52.449400",
    "lng": "17.083300",
    "address": "Poznanska 48",
    "city": "Kobylnica",
    "postcode": "62-006",
    "telephone": "+48 24 256 4137"
  },
  {
    "id": 721,
    "brand": "ORLEN",
    "name": "4158 ORLEN - Witkowo",
    "lat": "52.445138",
    "lng": "17.758973",
    "address": "Gnieznienska 28",
    "city": "Witkowo",
    "postcode": "62-230",
    "telephone": "+48 24 256 4158"
  },
  {
    "id": 724,
    "brand": "ORLEN",
    "name": "0639 ORLEN - Krakow",
    "lat": "50.046390",
    "lng": "19.977350",
    "address": "Nowohucka 71",
    "city": "Krakow",
    "postcode": "30-713",
    "telephone": "+48 24 256 0639"
  },
  {
    "id": 725,
    "brand": "ORLEN",
    "name": "0247 ORLEN - Zory",
    "lat": "50.041635",
    "lng": "18.698130",
    "address": "Kosciuszki 35",
    "city": "Zory",
    "postcode": "44-240",
    "telephone": "+48 24 256 0247"
  },
  {
    "id": 728,
    "brand": "ORLEN",
    "name": "4248 ORLEN - Szlichtyngowa",
    "lat": "51.705505",
    "lng": "16.235285",
    "address": "Glogowska 52",
    "city": "Szlichtyngowa",
    "postcode": "67-407",
    "telephone": "+48 24 256 4248"
  },
  {
    "id": 729,
    "brand": "ORLEN",
    "name": "0331 ORLEN - Znin",
    "lat": "52.846240",
    "lng": "17.719150",
    "address": "Sienkiewicza 3",
    "city": "Znin",
    "postcode": "88-400",
    "telephone": "+48 24 256 0331"
  },
  {
    "id": 730,
    "brand": "ORLEN",
    "name": "1457 ORLEN - Szczecin",
    "lat": "53.435780",
    "lng": "14.497970",
    "address": "Witkiewicza 22",
    "city": "Szczecin",
    "postcode": "71-177",
    "telephone": "+48 24 256 1457"
  },
  {
    "id": 731,
    "brand": "ORLEN",
    "name": "1033 ORLEN - Przybiernow",
    "lat": "53.758994",
    "lng": "14.785473",
    "address": "Boleslawa Chrobrego 64 e",
    "city": "Przybiernow",
    "postcode": "72-110",
    "telephone": "+48 24 256 1033"
  },
  {
    "id": 733,
    "brand": "ORLEN",
    "name": "1286 ORLEN - Domaradz",
    "lat": "49.794650",
    "lng": "21.947345",
    "address": "Domaradz 761B",
    "city": "Domaradz",
    "postcode": "36-230",
    "telephone": "+48 24 256 1286"
  },
  {
    "id": 734,
    "brand": "ORLEN",
    "name": "1290 ORLEN - Rzeszow",
    "lat": "50.013840",
    "lng": "21.971350",
    "address": "Podkarpacka 45",
    "city": "Rzeszow",
    "postcode": "35-082",
    "telephone": "+48 24 256 1290"
  },
  {
    "id": 735,
    "brand": "ORLEN",
    "name": "0038 ORLEN - Wroclaw",
    "lat": "51.106770",
    "lng": "17.018120",
    "address": "Teczowa 5",
    "city": "Wroclaw",
    "postcode": "53-601",
    "telephone": "+48 24 256 0038"
  },