[
  {
    "id": "10034983",
    "brand": "shell",
    "name": "5507 GRANICA ZGORZ.",
    "lat": 51.148636,
    "lng": 15.009883,
    "address": "EMILLI PLATER 7",
    "city": "ZGORZELEC",
    "state": "Woj. dolnoslaskie",
    "postcode": "59-900",
    "telephone": "+48 571 303 024"
  },
  {
    "id": "10058081",
    "brand": "shell",
    "name": "5326 JEDRZYCHOWICE G.",
    "lat": 51.176751,
    "lng": 15.032192,
    "address": "R-N JEDRZYCHOWICE 98B",
    "city": "JEDRZYCHOWICE",
    "state": "Woj. dolnoslaskie",
    "postcode": "59-900",
    "telephone": "+48 75 640 84 42"
  },
  {
    "id": "10034907",
    "brand": "shell",
    "name": "5103 ZARSKA WIES I",
    "lat": 51.205246,
    "lng": 15.123113,
    "address": "ZARSKA WIES I",
    "city": "ZGORZELEC",
    "state": "Woj. dolnoslaskie",
    "postcode": "59-903",
    "telephone": "+48 571 303 020"
  },
  {
    "id": "12475204",
    "brand": "shell",
    "name": "5330 GUBIN BORDER",
    "lat": 51.948656,
    "lng": 14.723547,
    "address": "II ARMII WOJSKA POLSKIEGO 7",
    "city": "GUBIN",
    "state": "Woj. lubuskie",
    "postcode": "66-620",
    "telephone": "+48 571 303 642"
  },
  {
    "id": "12717439",
    "brand": "shell",
    "name": "8308 KROLOW PIEPRZYK FAMILY",
    "lat": 51.634946,
    "lng": 14.861096,
    "address": "DK12",
    "city": "KROLOW",
    "state": "Woj. lubuskie",
    "postcode": "68-212",
    "telephone": "+48 601 159 251"
  },
  {
    "id": "12650219",
    "brand": "shell",
    "name": "8607 LEKNICA",
    "lat": 51.533823,
    "lng": 14.741713,
    "address": "KOSCIUSZKI 4",
    "city": "LEKNICA",
    "state": "Woj. lubuskie",
    "postcode": "68-208",
    "telephone": "+48 535 104 850"
  },
  {
    "id": "12713947",
    "brand": "shell",
    "name": "5315 OSIECZNICA SHELL",
    "lat": 52.070938,
    "lng": 15.059227,
    "address": "POLNA 1A",
    "city": "OSIECZNICA",
    "state": "Woj. lubuskie",
    "postcode": "66-600",
    "telephone": "+48 512 869 685"
  },
  {
    "id": "10034904",
    "brand": "shell",
    "name": "5018 KUDOWA GRANICA.",
    "lat": 50.433043,
    "lng": 16.199311,
    "address": "SLONE 133A",
    "city": "KUDOWA ZDROJ",
    "state": "Woj. dolnoslaskie",
    "postcode": "57-350",
    "telephone": "+48 511 806 547"
  },
  {
    "id": "10034921",
    "brand": "shell",
    "name": "6005 KUDOWA ZDROJ.",
    "lat": 50.434758,
    "lng": 16.237222,
    "address": "GLOWNA 42A",
    "city": "KUDOWA ZDROJ",
    "state": "Woj. dolnoslaskie",
    "postcode": "57-350",
    "telephone": "+48 511 807 382"
  },
  {
    "id": "10034981",
    "brand": "shell",
    "name": "5505 JELENIA GORA.",
    "lat": 50.92042,
    "lng": 15.75918,
    "address": "ALEJA JANA PAWLA II 47",
    "city": "JELENIA GORA",
    "state": "Woj. dolnoslaskie",
    "postcode": "58-506",
    "telephone": "+48 511 807 142"
  },
  {
    "id": "12017270",
    "brand": "shell",
    "name": "5113 LEGNICA RONDO.",
    "lat": 51.191728,
    "lng": 16.127397,
    "address": "ZLOTORYJSKA 172",
    "city": "LEGNICA",
    "state": "Woj. dolnoslaskie",
    "postcode": "59-220",
    "telephone": "+48 571 303 160"
  },
  {
    "id": "10034912",
    "brand": "shell",
    "name": "5109 LEGNICKA.",
    "lat": 51.15863,
    "lng": 16.171859,
    "address": "NOWA WIES LEGNICKA",
    "city": "LEGNICKIE POLE",
    "state": "Woj. dolnoslaskie",
    "postcode": "59-241",
    "telephone": "+48 571 303 029"
  },
  {
    "id": "12541095",
    "brand": "shell",
    "name": "8610 GROMADKA A4",
    "lat": 51.306328,
    "lng": 15.724425,
    "address": "ROZYNIEC 84A",
    "city": "GROMADKA",
    "state": "Woj. dolnoslaskie",
    "postcode": "59-706",
    "telephone": "+48 577 338 667"
  },
  {
    "id": "10034906",
    "brand": "shell",
    "name": "5023 BOLKO BOLESLAW.",
    "lat": 51.261104,
    "lng": 15.575734,
    "address": "SPOLDZIELCZA 15",
    "city": "BOLESLAWIEC",
    "state": "Woj. dolnoslaskie",
    "postcode": "59-700",
    "telephone": "+48 571 303 019"
  },
  {
    "id": "10034851",
    "brand": "shell",
    "name": "5101 MARSA LEGNICA",
    "lat": 51.204279,
    "lng": 16.191962,
    "address": "PILSUDSKIEGO 11",
    "city": "LEGNICA",
    "state": "Woj. dolnoslaskie",
    "postcode": "59-220",
    "telephone": "+48 571 303 028"
  },
  {
    "id": "10054147",
    "brand": "shell",
    "name": "8536 SPARK LUBAN",
    "lat": 51.121569,
    "lng": 15.29577,
    "address": "RYBACKA 21",
    "city": "LUBAN",
    "state": "Woj. dolnoslaskie",
    "postcode": "59-800",
    "telephone": "+48 75 722 55 58"
  },
  {
    "id": "10056866",
    "brand": "shell",
    "name": "5511 STRZEGOM GRANIT.",
    "lat": 50.976172,
    "lng": 16.36608,
    "address": "ALEJA WOJSKA POLSKIEGO 80G",
    "city": "STRZEGOM",
    "state": "Woj. dolnoslaskie",
    "postcode": "58-150",
    "telephone": "+48 74 632 12 06"
  },
  {
    "id": "10034940",
    "brand": "shell",
    "name": "2509 LUBIN.",
    "lat": 51.393571,
    "lng": 16.20919,
    "address": "PADEREWSKIEGO 88",
    "city": "LUBIN",
    "state": "Woj. dolnoslaskie",
    "postcode": "59-300",
    "telephone": "+48 571 303 026"
  },
  {
    "id": "10034982",
    "brand": "shell",
    "name": "5506 KOLEJOWA WALBR",
    "lat": 50.774054,
    "lng": 16.273831,
    "address": "KOLEJOWA 2",
    "city": "WALBRZYCH",
    "state": "Woj. dolnoslaskie",
    "postcode": "58-300",
    "telephone": "+48 511 807 238"
  },
  {
    "id": "10034853",
    "brand": "shell",
    "name": "5308 OSIEDLE.",
    "lat": 51.803313,
    "lng": 15.697294,
    "address": "STASZICA 17",
    "city": "NOWA SOL",
    "state": "Woj. lubuskie",
    "postcode": "67-100",
    "telephone": "+48 511 829 335"
  },
  {
    "id": "10034854",
    "brand": "shell",
    "name": "5309 CEGIELSKI.",
    "lat": 51.811434,
    "lng": 15.710583,
    "address": "PILSUDSKIEGO",
    "city": "NOWA SOL",
    "state": "Woj. lubuskie",
    "postcode": "67-100",
    "telephone": "+48 511 829 596"
  },
  {
    "id": "10034978",
    "brand": "shell",
    "name": "5305 3-MAJA.",
    "lat": 51.937312,
    "lng": 15.509755,
    "address": "KONSTYTUCJI 3 MAJA 23",
    "city": "ZIELONA GORA",
    "state": "Woj. lubuskie",
    "postcode": "65-805",
    "telephone": "+48 511 829 140"
  },
  {
    "id": "10034913",
    "brand": "shell",
    "name": "5302 ZJEDNOCZENIA.",
    "lat": 51.95277,
    "lng": 15.4872,
    "address": "ALEJA ZJEDNOCZENIA 108",
    "city": "ZIELONA GORA",
    "state": "Woj. lubuskie",
    "postcode": "65-120",
    "telephone": "+48 511 828 942"
  },
  {
    "id": "12476465",
    "brand": "shell",
    "name": "5332 SULECHOW ODRA",
    "lat": 52.065673,
    "lng": 15.616452,
    "address": "UL. NOWY SWIAT/ODRZANSKA PRZY m. DK",
    "city": "SULECHOW",
    "state": "Woj. lubuskie",
    "postcode": "66-100",
    "telephone": "+48 571 303 487"
  },
  {
    "id": "10048181",
    "brand": "shell",
    "name": "4310 POKOJU GLOGOW.",
    "lat": 51.654172,
    "lng": 16.08219,
    "address": "KOSCIUSZKI 17",
    "city": "GLOGOW",
    "state": "Woj. dolnoslaskie",
    "postcode": "67-200",
    "telephone": "+48 571 303 027"
  },
  {
    "id": "12845870",
    "brand": "shell",
    "name": "5521 PALACOWA",
    "lat": 51.5865,
    "lng": 16.036972,
    "address": "GLOGOWSKA 32G",
    "city": "JERZMANOWA",
    "state": "Woj. dolnoslaskie",
    "postcode": "67-210",
    "telephone": "+48 509 443 467"
  },
  {
    "id": "12225561",
    "brand": "shell",
    "name": "5328 ILOWA WEZEL.",
    "lat": 51.52595,
    "lng": 15.22013,
    "address": "Wezel A18",
    "city": "ILOWA",
    "state": "Woj. lubuskie",
    "postcode": "68-120",
    "telephone": "+48 571 303 144"
  },
  {
    "id": "10034909",
    "brand": "shell",
    "name": "5105 POLKOWICE",
    "lat": 51.501827,
    "lng": 16.06118,
    "address": "GDANSKA 23",
    "city": "POLKOWICE",
    "state": "Woj. dolnoslaskie",
    "postcode": "59-100",
    "telephone": "+48 509 782 005"
  },
  {
    "id": "10034892",
    "brand": "shell",
    "name": "4022 KOSTRZYN II.",
    "lat": 52.574692,
    "lng": 14.642085,
    "address": "CHYRZYNO 2",
    "city": "GORZYCA",
    "state": "Woj. lubuskie",
    "postcode": "69-113",
    "telephone": "+48 511 837 739"
  },
  {
    "id": "10034914",
    "brand": "shell",
    "name": "5303 SLUBICE.",
    "lat": 52.356119,
    "lng": 14.561256,
    "address": "CHROBREGO 25",
    "city": "SLUBICE",
    "state": "Woj. lubuskie",
    "postcode": "69-100",
    "telephone": "+48 511 838 946"
  },
  {
    "id": "12474905",
    "brand": "shell",
    "name": "5329 SLUBICE TRIO",
    "lat": 52.350407,
    "lng": 14.557238,
    "address": "UL.  KOPERNIKA 85",
    "city": "SLUBICE",
    "state": "Woj. lubuskie",
    "postcode": "64-100",
    "telephone": "+48 661 692 703"
  },
  {
    "id": "10034899",
    "brand": "shell",
    "name": "4405 SWIECKO SLUBICE.",
    "lat": 52.313329,
    "lng": 14.641486,
    "address": "SWIECKO",
    "city": "SLUBICE",
    "state": "Woj. lubuskie",
    "postcode": "69-100",
    "telephone": "+48 511 838 674"
  },
  {
    "id": "10055629",
    "brand": "shell",
    "name": "8537 BOCZOW PORT A2",
    "lat": 52.321127,
    "lng": 14.936952,
    "address": "BOCZOW ZAKLADOWA 6",
    "city": "TORZYM",
    "state": "Woj. lubuskie",
    "postcode": "66-235",
    "telephone": "+48 603 518 668"
  },
  {
    "id": "10034900",
    "brand": "shell",
    "name": "4406 TORZYM.",
    "lat": 52.317646,
    "lng": 15.041535,
    "address": "KOLONIA POREBY",
    "city": "TORZYM",
    "state": "Woj. lubuskie",
    "postcode": "66-235",
    "telephone": "+48 505 285 559"
  },
  {
    "id": "12546614",
    "brand": "shell",
    "name": "8603 TORZYM BRAMKA NTI",
    "lat": 52.319904,
    "lng": 15.087177,
    "address": "UL SULECINSKA 17",
    "city": "TORZYM",
    "state": "Woj. lubuskie",
    "postcode": "66-235",
    "telephone": "+48 603 518 668"
  },
  {
    "id": "12799235",
    "brand": "shell",
    "name": "4415 RENETA",
    "lat": 52.745219,
    "lng": 15.154761,
    "address": "ZLOTEGO SMOKA 2",
    "city": "GORZOW WIELKOPOLSKI",
    "state": "Woj. lubuskie",
    "postcode": "66-400",
    "telephone": "+48 789 805 977"
  },
  {
    "id": "10034895",
    "brand": "shell",
    "name": "4106 SLONECZNE SZCZ",
    "lat": 53.380175,
    "lng": 14.651326,
    "address": "JASNA 15",
    "city": "SZCZECIN",
    "state": "Woj. Zachodniopom.",
    "postcode": "70-777",
    "telephone": "+48 571 303 016"
  },
  {
    "id": "12224118",
    "brand": "shell",
    "name": "7406 SZCZECIN STRUGA",
    "lat": 53.382001,
    "lng": 14.668631,
    "address": "UL. STRUGA/BOTANICZNA",
    "city": "SZCZECIN",
    "state": "Woj. Zachodniopom.",
    "postcode": "70-784",
    "telephone": "+48 571 303 354"
  },
  {
    "id": "10053930",
    "brand": "shell",
    "name": "4130 FIRE SZCZ",
    "lat": 53.366751,
    "lng": 14.727918,
    "address": "SZOSA STARGARDZKA 7",
    "city": "SZCZECIN",
    "state": "Woj. Zachodniopom.",
    "postcode": "70-893",
    "telephone": "+48 571 303 146"
  },
  {
    "id": "10034835",
    "brand": "shell",
    "name": "4103 DRABINY SZCZ",
    "lat": 53.411759,
    "lng": 14.578093,
    "address": "GDANSKA 10",
    "city": "SZCZECIN",
    "state": "Woj. Zachodniopom.",
    "postcode": "70-660",
    "telephone": "+48 571 303 015"
  },
  {
    "id": "12994552",
    "brand": "shell",
    "name": "8412 LOMAX DABIE",
    "lat": 53.408163,
    "lng": 14.698677,
    "address": "GOLENIOWSKA 64",
    "city": "SZCZECIN",
    "state": "Woj. Zachodniopom.",
    "postcode": "70-840",
    "telephone": "+48 451 520 182"
  },
  {
    "id": "10034965",
    "brand": "shell",
    "name": "4114 ENERGETYK. SZCZ.",
    "lat": 53.419539,
    "lng": 14.56396,
    "address": "ENERGETYKOW 6",
    "city": "SZCZECIN",
    "state": "Woj. Zachodniopom.",
    "postcode": "70-656",
    "telephone": "+48 571 303 017"
  },
  {
    "id": "10034896",
    "brand": "shell",
    "name": "4109 GRYF SZCZ.",
    "lat": 53.404114,
    "lng": 14.503501,
    "address": "POLUDNIOWA 9",
    "city": "SZCZECIN",
    "state": "Woj. Zachodniopom.",
    "postcode": "70-001",
    "telephone": "+48 571 303 105"
  },
  {
    "id": "10034833",
    "brand": "shell",
    "name": "4101 MIESZKA SZCZ",
    "lat": 53.408431,
    "lng": 14.510487,
    "address": "MIESZKA I 29",
    "city": "SZCZECIN",
    "state": "Woj. Zachodniopom.",
    "postcode": "71-007",
    "telephone": "+48 571 303 104"
  },
  {
    "id": "10034897",
    "brand": "shell",
    "name": "4110 KOLBASKOWO II.",
    "lat": 53.337074,
    "lng": 14.424868,
    "address": "KOLBASKOWO 121",
    "city": "KOLBASKOWO",
    "state": "Woj. Zachodniopom.",
    "postcode": "72-001",
    "telephone": "+48 511 832 431"
  },
  {
    "id": "12168918",
    "brand": "shell",
    "name": "4134 SZCZECIN EUROPEJSKA.",
    "lat": 53.420917,
    "lng": 14.500774,
    "address": "DWORSKA 8",
    "city": "SZCZECIN",
    "state": "Woj. Zachodniopom.",
    "postcode": "71-026",
    "telephone": "+48 571 303 018"
  },
  {
    "id": "10034834",
    "brand": "shell",
    "name": "4102 GONTYNKA SZCZ",
    "lat": 53.44278,
    "lng": 14.564764,
    "address": "SCZANIECKIEJ/1 MAJA",
    "city": "SZCZECIN",
    "state": "Woj. Zachodniopom.",
    "postcode": "71-630",
    "telephone": "+48 571 303 014"
  },
  {
    "id": "10034964",
    "brand": "shell",
    "name": "4113 DERDOWSKI. SZCZ.",
    "lat": 53.425521,
    "lng": 14.499901,
    "address": "DERDOWSKIEGO 6",
    "city": "SZCZECIN",
    "state": "Woj. Zachodniopom.",
    "postcode": "71-087",
    "telephone": "+48 571 303 107"
  },
  {
    "id": "10034966",
    "brand": "shell",
    "name": "4115 WOJSKA POL SZCZ",
    "lat": 53.445369,
    "lng": 14.522504,
    "address": "WOJSKA POLSKIEGO 142",
    "city": "SZCZECIN",
    "state": "Woj. Zachodniopom.",
    "postcode": "70-491",
    "telephone": "+48 571 303 108"
  },
  {
    "id": "12224670",
    "brand": "shell",
    "name": "7407 SZCZECIN DUNSKA",
    "lat": 53.459672,
    "lng": 14.543524,
    "address": "UL. BELGIJSKA 1",
    "city": "SZCZECIN",
    "state": "Woj. Zachodniopom.",
    "postcode": "71-975",
    "telephone": "+48 664 360 942"
  },
  {
    "id": "10034837",
    "brand": "shell",
    "name": "4118 TESCO",
    "lat": 53.34258,
    "lng": 14.990281,
    "address": "SZCZECINSKA 81",
    "city": "STARGARD SZCZECINSKI",
    "state": "Woj. Zachodniopom.",
    "postcode": "73-100",
    "telephone": "+48 571 303 109"
  },
  {
    "id": "10050958",
    "brand": "shell",
    "name": "4126 GOLENIOW II",
    "lat": 53.545537,
    "lng": 14.800909,
    "address": "DROGA KRAJOWA S-3",
    "city": "GOLENIOW",
    "state": "Woj. Zachodniopom.",
    "postcode": "72-100",
    "telephone": "+48 511 833 094"
  },
  {
    "id": "10048180",
    "brand": "shell",
    "name": "4119 GOLENIOW LOTN.",
    "lat": 53.581169,
    "lng": 14.812362,
    "address": "ZDZARY 17H",
    "city": "GOLENIOW",
    "state": "Woj. Zachodniopom.",
    "postcode": "72-100",
    "telephone": "+48 511 832 636"
  },
  {
    "id": "10034963",
    "brand": "shell",
    "name": "4112 SWINOUJSCIE",
    "lat": 53.89913,
    "lng": 14.234346,
    "address": "NOWOKARSIBORSKA 4-8",
    "city": "SWINOUJSCIE",
    "state": "Woj. Zachodniopom.",
    "postcode": "72-600",
    "telephone": "+48 571 303 106"
  },
  {
    "id": "12847954",
    "brand": "shell",
    "name": "8623 NBS PARK SWINOUJSCIE",
    "lat": 53.92196,
    "lng": 14.218505,
    "address": "WOJSKA POLSKIEGO 99.",
    "city": "SWINOUJSCIE",
    "state": "Woj. Zachodniopom.",
    "postcode": "72-600",
    "telephone": "+48 722 340 470"
  },
  {
    "id": "12649858",
    "brand": "shell",
    "name": "8614 GAMA",
    "lat": 54.077795,
    "lng": 15.032957,
    "address": "SLONECZNA 1A",
    "city": "SLIWIN",
    "state": "Woj. Zachodniopom.",
    "postcode": "72-344",
    "telephone": "+48 91 386 24 08"
  },
  {
    "id": "12159469",
    "brand": "shell",
    "name": "8451 NTI GORZYN MERCEDES",
    "lat": 52.565561,
    "lng": 15.897257,
    "address": "GORZYN 34",
    "city": "MIEDZYCHOD",
    "state": "Woj. wielkopolskie",
    "postcode": "64-400",
    "telephone": "+48 512 349 822"
  },
  {
    "id": "11955482",
    "brand": "shell",
    "name": "4413 GORZOW KASPRZAKA",
    "lat": 52.7093,
    "lng": 15.240134,
    "address": "KASPRZAKA 28",
    "city": "GORZOW WIELKOPOLSKI",
    "state": "Woj. lubuskie",
    "postcode": "66-401",
    "telephone": "+48 511 831 843"
  },
  {
    "id": "10034844",
    "brand": "shell",
    "name": "4401 STILON G.W.",
    "lat": 52.74859,
    "lng": 15.257161,
    "address": "WALCZAKA 25B",
    "city": "GORZOW WIELKOPOLSKI",
    "state": "Woj. lubuskie",
    "postcode": "66-400",
    "telephone": "+48 511 831 659"
  },
  {
    "id": "10034898",
    "brand": "shell",
    "name": "4402 WALCZAKA G.W.",
    "lat": 52.757461,
    "lng": 15.269767,
    "address": "WALCZAKA 41",
    "city": "GORZOW WIELKOPOLSKI",
    "state": "Woj. lubuskie",
    "postcode": "66-400",
    "telephone": "+48 511 831 781"
  },
  {
    "id": "12017321",
    "brand": "shell",
    "name": "4414 GORZOW WESTERN.",
    "lat": 52.730645,
    "lng": 15.223276,
    "address": "AL. KONSTYTUCJI 3 MAJA 11",
    "city": "GORZOW",
    "state": "Woj. lubuskie",
    "postcode": "66-400",
    "telephone": "+48 571 303 158"
  },
  {
    "id": "12720507",
    "brand": "shell",
    "name": "8633 POLMAX MIEDZICHOWO",
    "lat": 52.376349,
    "lng": 15.958567,
    "address": "WARSZAWSKA 6",
    "city": "MIEDZICHOWO",
    "state": "Woj. wielkopolskie",
    "postcode": "64-361",
    "telephone": "+48 662 031 587"
  },
  {
    "id": "12805239",
    "brand": "shell",
    "name": "8248 KOWALCZYK ZARANSKO",
    "lat": 53.571177,
    "lng": 15.848767,
    "address": "ZARANSKO 49",
    "city": "DRAWSKO POMORSKIE",
    "state": "Woj. Zachodniopom.",
    "postcode": "78-500",
    "telephone": "+48 602 800 477"
  },
  {
    "id": "12654973",
    "brand": "shell",
    "name": "8615 BOBRYK LUBNO.",
    "lat": 53.312984,
    "lng": 16.360324,
    "address": "DK 10 72",
    "city": "LUBNO",
    "state": "Woj. Zachodniopom.",
    "postcode": "78-600",
    "telephone": "+48 785 883 402"
  },
  {
    "id": "10034902",
    "brand": "shell",
    "name": "4601 MINIMAL.",
    "lat": 54.17625,
    "lng": 15.596575,
    "address": "KOSZALINSKA 36",
    "city": "KOLOBRZEG",
    "state": "Woj. Zachodniopom.",
    "postcode": "78-100",
    "telephone": "+48 511 841 574"
  },
  {
    "id": "10051718",
    "brand": "shell",
    "name": "2702 SYRENKA.",
    "lat": 54.182747,
    "lng": 16.150611,
    "address": "SYRENKI 3",
    "city": "KOSZALIN",
    "state": "Woj. Zachodniopom.",
    "postcode": "75-123",
    "telephone": "+48 511 841 394"
  },
  {
    "id": "12017329",
    "brand": "shell",
    "name": "2704 KOSZALIN MONTE.",
    "lat": 54.197188,
    "lng": 16.175462,
    "address": "AL. MONTE CASSINO 24",
    "city": "KOSZALIN",
    "state": "Woj. Zachodniopom.",
    "postcode": "75-412",
    "telephone": "+48 511 841 436"
  },
  {
    "id": "10056717",
    "brand": "shell",
    "name": "2211 KOSZALIN BLIZNIAK",
    "lat": 54.204823,
    "lng": 16.20595,
    "address": "UL. REKREACYJNA 16",
    "city": "KOSZALIN",
    "state": "Woj. Zachodniopom.",
    "postcode": "75-436",
    "telephone": "+48 511 841 043"
  },
  {
    "id": "10050277",
    "brand": "shell",
    "name": "8410 HYDROGRYF",
    "lat": 53.926086,
    "lng": 15.204791,
    "address": "PILSUDSKIEGO 20A",
    "city": "GRYFICE",
    "state": "Woj. Zachodniopom.",
    "postcode": "72-300",
    "telephone": "+48 601 536 829"
  },
  {
    "id": "12828839",
    "brand": "shell",
    "name": "5219 LUBRZA",
    "lat": 50.329972,
    "lng": 17.601889,
    "address": "OPOLSKA 12.",
    "city": "LUBRZA",
    "state": "Woj. opolskie",
    "postcode": "48-231",
    "telephone": "+48 512 596 163"
  },
  {
    "id": "12481542",
    "brand": "shell",
    "name": "5520 WROCLAW AMAZON NTI.",
    "lat": 51.04175,
    "lng": 16.947412,
    "address": "AMAZON 5",
    "city": "BIELANY WROCLAWSKIE",
    "state": "Woj. dolnoslaskie",
    "postcode": "55-040",
    "telephone": "+48 507 219 678"
  },
  {
    "id": "12224656",
    "brand": "shell",
    "name": "7501 WROCLAW POWSTANCOW SLASKICH",
    "lat": 51.075456,
    "lng": 17.006876,
    "address": "POWSTANCOW SLASKICH 211C",
    "city": "WROCLAW",
    "state": "Woj. dolnoslaskie",
    "postcode": "53-100",
    "telephone": "+48 571 303 346"
  },
  {
    "id": "10034846",
    "brand": "shell",
    "name": "5004 BUDREM WRO.",
    "lat": 51.079523,
    "lng": 17.021584,
    "address": "SLEZNA 144",
    "city": "WROCLAW",
    "state": "Woj. dolnoslaskie",
    "postcode": "53-110",
    "telephone": "+48 511 819 863"
  },
  {
    "id": "12715596",
    "brand": "shell",
    "name": "8621 PORT KATY WROCLAWSKIE",
    "lat": 51.017452,
    "lng": 16.753722,
    "address": "KS. JERZEGO POPIELUSZKI 21",
    "city": "KATY WROCLAWSKIE",
    "state": "Woj. dolnoslaskie",
    "postcode": "55-080",
    "telephone": "+48 693 370 370"
  },
  {
    "id": "10034847",
    "brand": "shell",
    "name": "5005 CHERRY WRO.",
    "lat": 51.083421,
    "lng": 17.02376,
    "address": "WISNIOWA 87",
    "city": "WROCLAW",
    "state": "Woj. dolnoslaskie",
    "postcode": "53-126",
    "telephone": "+48 511 820 278"
  },
  {
    "id": "10034903",
    "brand": "shell",
    "name": "5015 MINSKA WRO.",
    "lat": 51.105942,
    "lng": 16.950511,
    "address": "MINSKA 41",
    "city": "WROCLAW",
    "state": "Woj. dolnoslaskie",
    "postcode": "54-610",
    "telephone": "+48 511 839 081"
  },
  {
    "id": "10034848",
    "brand": "shell",
    "name": "5006 MOTORS WRO.",
    "lat": 51.085643,
    "lng": 17.045915,
    "address": "KAMIENNA 145",
    "city": "WROCLAW",
    "state": "Woj. dolnoslaskie",
    "postcode": "50-545",
    "telephone": "+48 511 820 762"
  },
  {
    "id": "10034973",
    "brand": "shell",
    "name": "5031 GUBINSKA WRO.",
    "lat": 51.113494,
    "lng": 16.958435,
    "address": "GUBINSKA 6",
    "city": "WROCLAW",
    "state": "Woj. dolnoslaskie",
    "postcode": "54-433",
    "telephone": "+48 511 839 223"
  },
  {
    "id": "10034970",
    "brand": "shell",
    "name": "5026 KRAKOWSKA WRO.",
    "lat": 51.091993,
    "lng": 17.062679,
    "address": "KRAKOWSKA 70-80",
    "city": "WROCLAW",
    "state": "Woj. dolnoslaskie",
    "postcode": "50-426",
    "telephone": "+48 511 820 869"
  },
  {
    "id": "10034971",
    "brand": "shell",
    "name": "5027 MALOPANEW. WRO.",
    "lat": 51.122799,
    "lng": 16.987926,
    "address": "MALOPANEWSKA 2",
    "city": "WROCLAW",
    "state": "Woj. dolnoslaskie",
    "postcode": "54-212",
    "telephone": "+48 511 839 095"
  },
  {
    "id": "10034972",
    "brand": "shell",
    "name": "5028 OBORNICKA WROC.",
    "lat": 51.138739,
    "lng": 17.028294,
    "address": "OBORNICKA 64",
    "city": "WROCLAW",
    "state": "Woj. dolnoslaskie",
    "postcode": "51-114",
    "telephone": "+48 511 839 169"
  },
  {
    "id": "10034926",
    "brand": "shell",
    "name": "6010 PSIE POLE KRA.",
    "lat": 51.143764,
    "lng": 17.03215,
    "address": "ZMIGRODZKA 105/117",
    "city": "WROCLAW",
    "state": "Woj. dolnoslaskie",
    "postcode": "51-130",
    "telephone": "+48 511 839 287"
  },
  {
    "id": "12613376",
    "brand": "shell",
    "name": "5002 KOSMO NTI",
    "lat": 51.147479,
    "lng": 16.841758,
    "address": "AL. PREZYDENTA RYSZARDA KACZORO 101",
    "city": "WROCLAW",
    "state": "Woj. dolnoslaskie",
    "postcode": "54-009",
    "telephone": "+48 517 960 665"
  },
  {
    "id": "10034845",
    "brand": "shell",
    "name": "5001 BRUCKNERA WRO.",
    "lat": 51.138302,
    "lng": 17.082093,
    "address": "AL. BRUCKNERA 53-53A",
    "city": "WROCLAW",
    "state": "Woj. dolnoslaskie",
    "postcode": "51-411",
    "telephone": "+48 511 840 395"
  },
  {
    "id": "10034975",
    "brand": "shell",
    "name": "5210 KUTROWSKIEGO.",
    "lat": 50.949569,
    "lng": 17.283545,
    "address": "KUTROWSKIEGO 29H",
    "city": "OLAWA",
    "state": "Woj. dolnoslaskie",
    "postcode": "55-200",
    "telephone": "+48 511 840 479"
  },
  {
    "id": "10034905",
    "brand": "shell",
    "name": "5019 DLUGOLEKA.",
    "lat": 51.174647,
    "lng": 17.179767,
    "address": "WROCLAWSKA 52",
    "city": "DLUGOLEKA",
    "state": "Woj. dolnoslaskie",
    "postcode": "55-090",
    "telephone": "+48 511 839 486"
  },
  {
    "id": "10034979",
    "brand": "shell",
    "name": "5503 DZIERZONIOW.",
    "lat": 50.73915,
    "lng": 16.636155,
    "address": "SWIDNICKA 69",
    "city": "DZIERZONIOW",
    "state": "Woj. dolnoslaskie",
    "postcode": "58-200",
    "telephone": "+48 511 803 497"
  },
  {
    "id": "10034984",
    "brand": "shell",
    "name": "5508 TGG SWIDNICA",
    "lat": 50.85054,
    "lng": 16.475399,
    "address": "SIKORSKIEGO",
    "city": "SWIDNICA",
    "state": "Woj. dolnoslaskie",
    "postcode": "58-105",
    "telephone": "+48 511 805 269"
  },
  {
    "id": "10034859",
    "brand": "shell",
    "name": "5501 YOUNG SWIDNICA",
    "lat": 50.842704,
    "lng": 16.463624,
    "address": "ZAMENHOFFA",
    "city": "SWIDNICA",
    "state": "Woj. dolnoslaskie",
    "postcode": "58-105",
    "telephone": "+48 511 803 217"
  },
  {
    "id": "10034969",
    "brand": "shell",
    "name": "5025 OLESNICA.",
    "lat": 51.21083,
    "lng": 17.394165,
    "address": "KLONOWA 9",
    "city": "OLESNICA",
    "state": "Woj. dolnoslaskie",
    "postcode": "56-400",
    "telephone": "+48 511 839 527"
  },
  {
    "id": "10034850",
    "brand": "shell",
    "name": "5009 SPOLMOT.",
    "lat": 51.215419,
    "lng": 17.403033,
    "address": "WOJSKA POLSKIEGO",
    "city": "OLESNICA",
    "state": "Woj. dolnoslaskie",
    "postcode": "56-400",
    "telephone": "+48 511 839 315"
  },
  {
    "id": "10034843",
    "brand": "shell",
    "name": "4302 SPOLEM KOSCIAN",
    "lat": 52.089593,
    "lng": 16.651041,
    "address": "GOSTYNSKA 1",
    "city": "KOSCIAN",
    "state": "Woj. wielkopolskie",
    "postcode": "64-000",
    "telephone": "+48 571 303 268"
  },
  {
    "id": "10034842",
    "brand": "shell",
    "name": "4301 LESZNO.",
    "lat": 51.831844,
    "lng": 16.596578,
    "address": "KONSTYTUCJI 3 MAJA 8",
    "city": "LESZNO",
    "state": "Woj. wielkopolskie",
    "postcode": "64-100",
    "telephone": "+48 571 303 284"
  },
  {
    "id": "10058146",
    "brand": "shell",
    "name": "4214 JAROCIN FESTIWAL",
    "lat": 51.9572,
    "lng": 17.501596,
    "address": "WROCLAWSKA 79",
    "city": "JAROCIN",
    "state": "Woj. wielkopolskie",
    "postcode": "63-200",
    "telephone": "+48 62 740 27 10"
  },
  {
    "id": "12794905",
    "brand": "shell",
    "name": "4303 LESZCZYNA",
    "lat": 51.82656,
    "lng": 16.50254,
    "address": "UL. SZKOLNA 1A",
    "city": "LASOCICE",
    "state": "Woj. wielkopolskie",
    "postcode": "64-100",
    "telephone": "+48 505 257 168"
  },
  {
    "id": "10034852",
    "brand": "shell",
    "name": "5202 KOZA.",
    "lat": 50.340314,
    "lng": 18.19282,
    "address": "KOZIELSKA 30",
    "city": "KEDZIERZYN - KOZLE",
    "state": "Woj. opolskie",
    "postcode": "47-220",
    "telephone": "+48 511 843 358"
  },
  {
    "id": "12224846",
    "brand": "shell",
    "name": "7503 STRZELCE STRZELCOW",
    "lat": 50.513752,
    "lng": 18.289341,
    "address": "UL. STRZELCOW BYTOMSKICH 1A",
    "city": "STRZELCE OP.",
    "state": "Woj. opolskie",
    "postcode": "47-100",
    "telephone": "+48 571 303 248"
  },
  {
    "id": "10034949",
    "brand": "shell",
    "name": "3041 OPAWSKA RACIBOR",
    "lat": 50.080993,
    "lng": 18.200698,
    "address": "OPAWSKA 119",
    "city": "RACIBORZ",
    "state": "Woj. slaskie",
    "postcode": "47-400",
    "telephone": "+48 511 793 659"
  },
  {
    "id": "10034974",
    "brand": "shell",
    "name": "5209 KRAPKOWICE.",
    "lat": 50.479458,
    "lng": 17.972184,
    "address": "KS. KOZIOLKA 10A",
    "city": "KRAPKOWICE",
    "state": "Woj. opolskie",
    "postcode": "47-300",
    "telephone": "+48 511 843 528"
  },
  {
    "id": "10034813",
    "brand": "shell",
    "name": "3053 BUDOWLANYCH RYB.",
    "lat": 50.101628,
    "lng": 18.515579,
    "address": "BUDOWLANYCH 72",
    "city": "RYBNIK",
    "state": "Woj. slaskie",
    "postcode": "44-217",
    "telephone": "+48 511 795 621"
  },
  {
    "id": "10034792",
    "brand": "shell",
    "name": "3001 TOSZECKA GLIWIC.",
    "lat": 50.32434,
    "lng": 18.661356,
    "address": "TOSZECKA 135",
    "city": "GLIWICE",
    "state": "Woj. slaskie",
    "postcode": "44-100",
    "telephone": "+48 511 842 457"
  },
  {
    "id": "10034793",
    "brand": "shell",
    "name": "3002 RYBNICKA GLIWIC.",
    "lat": 50.273105,
    "lng": 18.661734,
    "address": "RYBNICKA 159",
    "city": "GLIWICE",
    "state": "Woj. slaskie",
    "postcode": "44-100",
    "telephone": "+48 511 842 579"
  },
  {
    "id": "10045402",
    "brand": "shell",
    "name": "3056 PEGAS GLIWICE.",
    "lat": 50.315623,
    "lng": 18.693532,
    "address": "TARNOGORSKA 163",
    "city": "GLIWICE",
    "state": "Woj. slaskie",
    "postcode": "44-100",
    "telephone": "+48 511 842 686"
  },
  {
    "id": "10054682",
    "brand": "shell",
    "name": "3061 RONDO RYBNIK.",
    "lat": 50.086982,
    "lng": 18.54608,
    "address": "CHWALOWICKA 1",
    "city": "RYBNIK",
    "state": "Woj. slaskie",
    "postcode": "44-200",
    "telephone": "+48 511 796 192"
  },
  {
    "id": "12781521",
    "brand": "shell",
    "name": "8524 W. CIURKO",
    "lat": 50.52401,
    "lng": 17.918399,
    "address": "UL. POSILEK 1",
    "city": "ROGOW OPOLSKI",
    "state": "Woj. opolskie",
    "postcode": "47-300",
    "telephone": "+48 77 543 12 46"
  },
  {
    "id": "10034805",
    "brand": "shell",
    "name": "3017 RENAULT ZABRZE.",
    "lat": 50.305164,
    "lng": 18.743903,
    "address": "WOLNOSCI 57",
    "city": "ZABRZE",
    "state": "Woj. slaskie",
    "postcode": "41-804",
    "telephone": "+48 511 818 546"
  },
  {
    "id": "10045401",
    "brand": "shell",
    "name": "3034 RYBNICKA.",
    "lat": 50.016699,
    "lng": 18.477375,
    "address": "RYBNICKA 15",
    "city": "WODZISLAW",
    "state": "Woj. slaskie",
    "postcode": "44-300",
    "telephone": "+48 511 793 278"
  },
  {
    "id": "10034882",
    "brand": "shell",
    "name": "3032 MAX WODZ. SL",
    "lat": 50.006725,
    "lng": 18.447375,
    "address": "OSIEDLE DABROWKI 1",
    "city": "WODZISLAW SLASKI",
    "state": "Woj. slaskie",
    "postcode": "44-300",
    "telephone": "+48 511 792 894"
  },
  {
    "id": "12816445",
    "brand": "shell",
    "name": "8304 RYBNIK-BELK",
    "lat": 50.131309,
    "lng": 18.689424,
    "address": "UL. GLOWNA 1D",
    "city": "BELK",
    "state": "Woj. slaskie",
    "postcode": "44-237",
    "telephone": "+48 663 445 566"
  },
  {
    "id": "12224655",
    "brand": "shell",
    "name": "7304 ZABRZE KORFANTEGO",
    "lat": 50.313688,
    "lng": 18.773998,
    "address": "UL. KORFANTEGO/ MC SKLODOWSKIEJ",
    "city": "ZABRZE",
    "state": "Woj. slaskie",
    "postcode": "41-800",
    "telephone": "+48 795 025 265"
  },
  {
    "id": "10034951",
    "brand": "shell",
    "name": "3043 ZABRZE.",
    "lat": 50.309951,
    "lng": 18.786289,
    "address": "PLAC TEATRALNY 6",
    "city": "ZABRZE",
    "state": "Woj. slaskie",
    "postcode": "41-800",
    "telephone": "+48 511 819 508"
  },
  {
    "id": "10034806",
    "brand": "shell",
    "name": "3018 KONCOWA ZABRZE.",
    "lat": 50.298474,
    "lng": 18.800172,
    "address": "WOLNOSCI 384",
    "city": "ZABRZE",
    "state": "Woj. slaskie",
    "postcode": "41-800",
    "telephone": "+48 511 818 561"
  },
  {
    "id": "12789493",
    "brand": "shell",
    "name": "3087 GWAREK",
    "lat": 50.402563,
    "lng": 18.809977,
    "address": "ZOLNIERSKA 124",
    "city": "BYTOM",
    "state": "Woj. slaskie",
    "postcode": "41-936",
    "telephone": "+48 690 060 957"
  },
  {
    "id": "12789359",
    "brand": "shell",
    "name": "3086 PIAST SLASKI",
    "lat": 50.403849,
    "lng": 18.809674,
    "address": "ZOLNIERSKA 121",
    "city": "BYTOM",
    "state": "Woj. slaskie",
    "postcode": "41-936",
    "telephone": "+48 690 060 956"
  },
  {
    "id": "10034800",
    "brand": "shell",
    "name": "3012 ZORY.",
    "lat": 50.033544,
    "lng": 18.690083,
    "address": "ZJEDNOCZONEJ EUROPY 25",
    "city": "ZORY",
    "state": "Woj. slaskie",
    "postcode": "44-240",
    "telephone": "+48 571 303 076"
  },
  {
    "id": "10034976",
    "brand": "shell",
    "name": "5211 OZIMSKA OPOLE.",
    "lat": 50.669784,
    "lng": 17.96931,
    "address": "OZIMSKA 195",
    "city": "OPOLE",
    "state": "Woj. opolskie",
    "postcode": "45-286",
    "telephone": "+48 511 843 547"
  },
  {
    "id": "10034952",
    "brand": "shell",
    "name": "3044 KOSCIUSZKI ZORY.",
    "lat": 50.0305,
    "lng": 18.703716,
    "address": "KOSCIUSZKI 90",
    "city": "ZORY",
    "state": "Woj. slaskie",
    "postcode": "44-240",
    "telephone": "+48 571 303 081"
  },
  {
    "id": "10053929",
    "brand": "shell",
    "name": "3064 TARNOWSKIE G.",
    "lat": 50.45617,
    "lng": 18.834487,
    "address": "ZAGORSKA 185",
    "city": "TARNOWSKIE GORY",
    "state": "Woj. slaskie",
    "postcode": "42-600",
    "telephone": "+48 884 844 474"
  },
  {
    "id": "10034881",
    "brand": "shell",
    "name": "3031 MARKET JASTRZ",
    "lat": 49.939396,
    "lng": 18.592941,
    "address": "CIESZYNSKA 9",
    "city": "JASTRZEBIE ZDROJ",
    "state": "Woj. slaskie",
    "postcode": "44-335",
    "telephone": "+48 571 303 079"
  },
  {
    "id": "12193368",
    "brand": "shell",
    "name": "5218 OPOLE DOMANSKIEGO",
    "lat": 50.677745,
    "lng": 17.891207,
    "address": "WROCLAWSKA 103",
    "city": "OPOLE",
    "state": "Woj. opolskie",
    "postcode": "45-837",
    "telephone": "+48 571 303 386"
  },
  {
    "id": "10048178",
    "brand": "shell",
    "name": "3060 EXPRESS",
    "lat": 49.976237,
    "lng": 18.717221,
    "address": "CIESZYNSKA 9",
    "city": "WARSZOWICE",
    "state": "Woj. slaskie",
    "postcode": "43-254",
    "telephone": "+48 667 001 104"
  },
  {
    "id": "10057118",
    "brand": "shell",
    "name": "8523 NOWA NIEMODLIN",
    "lat": 50.643994,
    "lng": 17.640904,
    "address": "UL. OPOLSKA 48A",
    "city": "NIEMODLIN",
    "state": "Woj. opolskie",
    "postcode": "49-100",
    "telephone": "+48 606 271 178"
  },
  {
    "id": "10055393",
    "brand": "shell",
    "name": "5216 MLYNSKI STAW.",
    "lat": 50.676071,
    "lng": 17.657469,
    "address": "RZEDZIWOJOWICE 61",
    "city": "NIEMODLIN",
    "state": "Woj. opolskie",
    "postcode": "49-100",
    "telephone": "+48 571 303 746"
  },
  {
    "id": "10055394",
    "brand": "shell",
    "name": "5217 RZEDZIWOJOWICE",
    "lat": 50.677526,
    "lng": 17.650445,
    "address": "RZEDZIWOJOWICE 62",
    "city": "NIEMODLIN",
    "state": "Woj. opolskie",
    "postcode": "49-100",
    "telephone": "+48 571 303 748"
  },
  {
    "id": "12773352",
    "brand": "shell",
    "name": "8656 ENTERPRISE GASZYN",
    "lat": 51.194879,
    "lng": 18.538473,
    "address": "SPACEROWA 51",
    "city": "GASZYN",
    "state": "Woj. lodzkie",
    "postcode": "98-300",
    "telephone": "+48 724 313 972"
  },
  {
    "id": "10034938",
    "brand": "shell",
    "name": "2204 OLESNO.",
    "lat": 50.883336,
    "lng": 18.406495,
    "address": "KLUCZBORSKA 41",
    "city": "OLESNO",
    "state": "Woj. opolskie",
    "postcode": "46-300",
    "telephone": "+48 511 842 673"
  },
  {
    "id": "10050845",
    "brand": "shell",
    "name": "8512 SYCOW FENIX",
    "lat": 51.314144,
    "lng": 17.726473,
    "address": "KALISKA 17",
    "city": "SYCOW",
    "state": "Woj. dolnoslaskie",
    "postcode": "56-500",
    "telephone": "+48 501 230 521"
  },
  {
    "id": "12486174",
    "brand": "shell",
    "name": "1157 CHOJNY S8",
    "lat": 51.355858,
    "lng": 18.523355,
    "address": "CHOJNY 103",
    "city": "CHOJNY",
    "state": "Woj. lodzkie",
    "postcode": "98-360",
    "telephone": "+48 571 303 006"
  },
  {
    "id": "10034967",
    "brand": "shell",
    "name": "4207 STAWISZYNS. KAL.",
    "lat": 51.770071,
    "lng": 18.094312,
    "address": "STAWISZYNSKA 28",
    "city": "KALISZ",
    "state": "Woj. wielkopolskie",
    "postcode": "62-800",
    "telephone": "+48 511 831 562"
  },
  {
    "id": "12208209",
    "brand": "shell",
    "name": "4217 KALISZ STANCZUKOWSKIEGO",
    "lat": 51.761822,
    "lng": 18.059464,
    "address": "WALENTEGO STANCZUKOWSKIEGO",
    "city": "KALISZ",
    "state": "Woj. wielkopolskie",
    "postcode": "62-800",
    "telephone": "+48 571 303 125"
  },
  {
    "id": "10034839",
    "brand": "shell",
    "name": "4202 SALON KALISZ.",
    "lat": 51.73856,
    "lng": 18.052716,
    "address": "WROCLAWSKA 59",
    "city": "KALISZ",
    "state": "Woj. wielkopolskie",
    "postcode": "62-800",
    "telephone": "+48 511 831 418"
  },
  {
    "id": "12773097",
    "brand": "shell",
    "name": "8628 DRUM PORT CALISIA",
    "lat": 51.736471,
    "lng": 18.032788,
    "address": "INWESTORSKA 9",
    "city": "KALISZ",
    "state": "Woj. wielkopolskie",
    "postcode": "62-800",
    "telephone": "+48 62 500 59 73"
  },
  {
    "id": "10034840",
    "brand": "shell",
    "name": "4204 TUR TUREK.",
    "lat": 52.011463,
    "lng": 18.511663,
    "address": "UNIEJOWSKA 32",
    "city": "TUREK",
    "state": "Woj. wielkopolskie",
    "postcode": "62-700",
    "telephone": "+48 514 825 057"
  },
  {
    "id": "10034968",
    "brand": "shell",
    "name": "4208 OSTROW WLKP II.",
    "lat": 51.654282,
    "lng": 17.83722,
    "address": "KALISKA 104",
    "city": "OSTROW WIELKOPOLSKI",
    "state": "Woj. wielkopolskie",
    "postcode": "63-400",
    "telephone": "+48 511 840 379"
  },
  {
    "id": "12017299",
    "brand": "shell",
    "name": "4216 OSTROW WROCLAWSKA.",
    "lat": 51.641649,
    "lng": 17.814489,
    "address": "WROCLAWSKA 92",
    "city": "OSTROW WIELKOPOLSKI",
    "state": "Woj. wielkopolskie",
    "postcode": "63-400",
    "telephone": "+48 571 303 349"
  },
  {
    "id": "10034841",
    "brand": "shell",
    "name": "4209 PRZYGODZICE.",
    "lat": 51.595171,
    "lng": 17.822145,
    "address": "WROCLAWSKA 80-82",
    "city": "PRZYGODZICE",
    "state": "Woj. wielkopolskie",
    "postcode": "63-421",
    "telephone": "+48 511 832 171"
  },
  {
    "id": "10034935",
    "brand": "shell",
    "name": "1118 GRUNWALDZKA SIE.",
    "lat": 51.594502,
    "lng": 18.714225,
    "address": "GRUNWALDZKA 12",
    "city": "SIERADZ",
    "state": "Woj. lodzkie",
    "postcode": "98-200",
    "telephone": "+48 514 823 164"
  },
  {
    "id": "12486175",
    "brand": "shell",
    "name": "1156 DABROWA WIELKA S8.",
    "lat": 51.528906,
    "lng": 18.693922,
    "address": "KUSNIE 2H",
    "city": "SIERADZ",
    "state": "Woj. lodzkie",
    "postcode": "98-200",
    "telephone": "+48 514 823 792"
  },
  {
    "id": "10054858",
    "brand": "shell",
    "name": "8408 POLIGON",
    "lat": 52.537509,
    "lng": 16.982235,
    "address": "POZNANSKA 3",
    "city": "BOLECHOWO",
    "state": "Woj. wielkopolskie",
    "postcode": "62-005",
    "telephone": "+48 508 433 517"
  },
  {
    "id": "10034891",
    "brand": "shell",
    "name": "4021 SWARZEDZ.",
    "lat": 52.405224,
    "lng": 17.098905,
    "address": "POZNANSKA 8",
    "city": "SWARZEDZ",
    "state": "Woj. wielkopolskie",
    "postcode": "62-020",
    "telephone": "+48 511 829 704"
  },
  {
    "id": "10034888",
    "brand": "shell",
    "name": "4016 OBORNICKA POZN.",
    "lat": 52.460173,
    "lng": 16.893335,
    "address": "OBORNICKA 335",
    "city": "POZNAN",
    "state": "Woj. wielkopolskie",
    "postcode": "60-689",
    "telephone": "+48 511 824 833"
  },
  {
    "id": "10034961",
    "brand": "shell",
    "name": "4028 LECHICKA POZ.",
    "lat": 52.442861,
    "lng": 16.910058,
    "address": "LECHICKA 2",
    "city": "POZNAN",
    "state": "Woj. wielkopolskie",
    "postcode": "61-691",
    "telephone": "+48 511 825 992"
  },
  {
    "id": "10034889",
    "brand": "shell",
    "name": "4017 SERBSKA POZ",
    "lat": 52.43608,
    "lng": 16.914385,
    "address": "SOLIDARNOSCI 55",
    "city": "POZNAN",
    "state": "Woj. wielkopolskie",
    "postcode": "61-696",
    "telephone": "+48 511 829 618"
  },
  {
    "id": "10034827",
    "brand": "shell",
    "name": "4001 ZAMENHOFA POZ.",
    "lat": 52.40526,
    "lng": 16.953309,
    "address": "JANA PAWLA II 12",
    "city": "POZNAN",
    "state": "Woj. wielkopolskie",
    "postcode": "61-139",
    "telephone": "+48 511 821 987"
  },
  {
    "id": "10050842",
    "brand": "shell",
    "name": "4041 MALTA POZNAN.",
    "lat": 52.399881,
    "lng": 16.968883,
    "address": "ABP.BARANIAKA 100",
    "city": "POZNAN",
    "state": "Woj. wielkopolskie",
    "postcode": "61-245",
    "telephone": "+48 511 823 014"
  },
  {
    "id": "10050956",
    "brand": "shell",
    "name": "4045 BOGDANOWO.",
    "lat": 52.618621,
    "lng": 16.813094,
    "address": "BOGDANOWO",
    "city": "OBORNIKI WLKP.",
    "state": "Woj. wielkopolskie",
    "postcode": "64-600",
    "telephone": "+48 511 821 254"
  },
  {
    "id": "12224528",
    "brand": "shell",
    "name": "7831 POZNAN SZWAJCARSKA",
    "lat": 52.383882,
    "lng": 16.990254,
    "address": "UL. SZWAJCARSKA 14",
    "city": "POZNAN",
    "state": "Woj. wielkopolskie",
    "postcode": "61-285",
    "telephone": "+48 801 440 088"
  },
  {
    "id": "12738468",
    "brand": "shell",
    "name": "4004 S5 MOP SIEKIERKI",
    "lat": 52.370337,
    "lng": 17.205905,
    "address": "WROBLEWO 74",
    "city": "KOSTRZYN",
    "state": "Woj. wielkopolskie",
    "postcode": "62-025",
    "telephone": "+48 514 055 474"
  },
  {
    "id": "12738466",
    "brand": "shell",
    "name": "4002 S5 MOP CZERLEJNO",
    "lat": 52.364304,
    "lng": 17.201891,
    "address": "CZERLEJNO 1",
    "city": "KOSTRZYN",
    "state": "Woj. wielkopolskie",
    "postcode": "62-025",
    "telephone": "+48 514 056 370"
  },
  {
    "id": "10034828",
    "brand": "shell",
    "name": "4003 BULGARSKA POZ.",
    "lat": 52.410595,
    "lng": 16.868305,
    "address": "BULGARSKA 119",
    "city": "POZNAN",
    "state": "Woj. wielkopolskie",
    "postcode": "60-378",
    "telephone": "+48 511 822 143"
  },
  {
    "id": "10058080",
    "brand": "shell",
    "name": "4049 HETMANSKA POZ.",
    "lat": 52.386251,
    "lng": 16.912041,
    "address": "TRAUGUTTA 1/3",
    "city": "POZNAN",
    "state": "Woj. wielkopolskie",
    "postcode": "61-514",
    "telephone": "+48 511 823 354"
  },
  {
    "id": "12224661",
    "brand": "shell",
    "name": "7402 POZNAN BUKOWSKA",
    "lat": 52.411548,
    "lng": 16.856967,
    "address": "UL. BUKOWSKA/ ROG PROSTEJ 162",
    "city": "POZNAN",
    "state": "Woj. wielkopolskie",
    "postcode": "60-189",
    "telephone": "+48 571 303 196"
  },
  {
    "id": "10054669",
    "brand": "shell",
    "name": "4015 SANOCKA POZNAN",
    "lat": 52.356896,
    "lng": 16.994514,
    "address": "U. B. KRZYWOUSTEGO 124",
    "city": "POZNAN",
    "state": "Woj. wielkopolskie",
    "postcode": "61-144",
    "telephone": "+48 511 741 244"
  },
  {
    "id": "11955429",
    "brand": "shell",
    "name": "4048 POZNAN SPLAWKA",
    "lat": 52.352045,
    "lng": 16.997713,
    "address": "KRZYWOUSTEGO m. 135",
    "city": "POZNAN",
    "state": "Woj. wielkopolskie",
    "postcode": "61-144",
    "telephone": "+48 571 303 197"
  },
  {
    "id": "10034887",
    "brand": "shell",
    "name": "4014 JARYSZKI",
    "lat": 52.333327,
    "lng": 17.019004,
    "address": "JARYSZKI 1",
    "city": "GADKI",
    "state": "Woj. wielkopolskie",
    "postcode": "62-023",
    "telephone": "+48 571 303 279"
  },
  {
    "id": "10034890",
    "brand": "shell",
    "name": "4018 DOLNA WILDA POZ.",
    "lat": 52.358737,
    "lng": 16.905448,
    "address": "28 CZERWCA 1956R. 419",
    "city": "POZNAN",
    "state": "Woj. wielkopolskie",
    "postcode": "61-441",
    "telephone": "+48 511 825 769"
  },
  {
    "id": "10034830",
    "brand": "shell",
    "name": "4009 PRZEZMIEROWO.",
    "lat": 52.435365,
    "lng": 16.775554,
    "address": "POZNANSKA 41",
    "city": "PRZEZMIEROWO",
    "state": "Woj. wielkopolskie",
    "postcode": "62-081",
    "telephone": "+48 511 824 668"
  },
  {
    "id": "10034831",
    "brand": "shell",
    "name": "4010 BRZEZNO.",
    "lat": 52.37193,
    "lng": 17.356306,
    "address": "KOSTRZYNSKA 15",
    "city": "BRZEZNO",
    "state": "Woj. wielkopolskie",
    "postcode": "62-025",
    "telephone": "+48 511 728 569"
  },
  {
    "id": "10034960",
    "brand": "shell",
    "name": "4027 ZABIKOWSKA.",
    "lat": 52.350646,
    "lng": 16.88118,
    "address": "ZABIKOWSKA 68",
    "city": "LUBON",
    "state": "Woj. wielkopolskie",
    "postcode": "62-030",
    "telephone": "+48 511 822 413"
  },
  {
    "id": "10034901",
    "brand": "shell",
    "name": "4501 NETTO.",
    "lat": 52.808522,
    "lng": 17.210661,
    "address": "JANOWIECKA 27",
    "city": "WAGROWIEC",
    "state": "Woj. wielkopolskie",
    "postcode": "62-100",
    "telephone": "+48 511 820 891"
  },
  {
    "id": "12750137",
    "brand": "shell",
    "name": "4011 S11 MOP PALEDZIE",
    "lat": 52.371656,
    "lng": 16.765242,
    "address": "S11 MOP PALEDZIE",
    "city": "DOPIEWO",
    "state": "Woj. wielkopolskie",
    "postcode": "62-070",
    "telephone": "+48 512 649 120"
  },
  {
    "id": "12475195",
    "brand": "shell",
    "name": "4504 TARNOWO PODGORNE VILLA",
    "lat": 52.457461,
    "lng": 16.643124,
    "address": "UL. POZNANSKA 165",
    "city": "TARNOWO PODGORNE",
    "state": "Woj. wielkopolskie",
    "postcode": "62-080",
    "telephone": "+48 518 587 835"
  },
  {
    "id": "10048179",
    "brand": "shell",
    "name": "4044 PIAST GNIEZNO",
    "lat": 52.53708,
    "lng": 17.609057,
    "address": "SOBIESKIEGO 19",
    "city": "GNIEZNO",
    "state": "Woj. wielkopolskie",
    "postcode": "62-200",
    "telephone": "+48 571 303 066"
  },
  {
    "id": "10034962",
    "brand": "shell",
    "name": "4029 WROCLAWSKA.",
    "lat": 52.321084,
    "lng": 17.561253,
    "address": "WROCLAWSKA 1A",
    "city": "WRZESNIA",
    "state": "Woj. wielkopolskie",
    "postcode": "62-300",
    "telephone": "+48 511 831 292"
  },
  {
    "id": "12733884",
    "brand": "shell",
    "name": "4030 WRZOS",
    "lat": 52.309303,
    "lng": 17.544478,
    "address": "BIALEZYCE 53A",
    "city": "WRZESNIA",
    "state": "Woj. wielkopolskie",
    "postcode": "62-300",
    "telephone": "+48 573 084 219"
  },
  {
    "id": "12858363",
    "brand": "shell",
    "name": "8436 BEDNAREK TOMICZKI",
    "lat": 52.32852,
    "lng": 16.597581,
    "address": "STESZEWSKA 8B",
    "city": "TOMICZKI",
    "state": "Woj. wielkopolskie",
    "postcode": "62-060",
    "telephone": "+48 512 301 868"
  },
  {
    "id": "10058105",
    "brand": "shell",
    "name": "2122 PODGAJE",
    "lat": 53.468846,
    "lng": 16.869018,
    "address": "PODGAJE, POZNANSKA 6",
    "city": "OKONEK",
    "state": "Woj. wielkopolskie",
    "postcode": "64-965",
    "telephone": "+48 571 303 289"
  },
  {
    "id": "10034876",
    "brand": "shell",
    "name": "2109 ZAROWA PILA",
    "lat": 53.160767,
    "lng": 16.756114,
    "address": "POWSTANCOW WIELKOPOLSKICH",
    "city": "PILA",
    "state": "Woj. wielkopolskie",
    "postcode": "64-920",
    "telephone": "+48 571 303 294"
  },
  {
    "id": "12154501",
    "brand": "shell",
    "name": "8452 WB TANK BYTOW",
    "lat": 54.1539,
    "lng": 17.493161,
    "address": "UDORPIE, CHELMINSKA 3",
    "city": "BYTOW",
    "state": "Woj. pomorskie",
    "postcode": "77-100",
    "telephone": "+48 59 822 33 44"
  },
  {
    "id": "10058103",
    "brand": "shell",
    "name": "4131 KOSZALINSKA SZC.",
    "lat": 53.723588,
    "lng": 16.678706,
    "address": "KOSZALINSKA 84",
    "city": "SZCZECINEK",
    "state": "Woj. Zachodniopom.",
    "postcode": "78-400",
    "telephone": "+48 571 303 291"
  },
  {
    "id": "10034918",
    "brand": "shell",
    "name": "6002 SZCZECINSKA SLU.",
    "lat": 54.459198,
    "lng": 16.995455,
    "address": "SZCZECINSKA 36H",
    "city": "SLUPSK",
    "state": "Woj. pomorskie",
    "postcode": "76-209",
    "telephone": "+48 511 838 579"
  },
  {
    "id": "10034790",
    "brand": "shell",
    "name": "2601 SEZAMOR SLUPSK",
    "lat": 54.456638,
    "lng": 16.990367,
    "address": "SZCZECINSKA 58B",
    "city": "SLUPSK",
    "state": "Woj. pomorskie",
    "postcode": "76-200",
    "telephone": "+48 511 838 142"
  },
  {
    "id": "12169945",
    "brand": "shell",
    "name": "4053 KONIN CHOPINA.",
    "lat": 52.233455,
    "lng": 18.2474,
    "address": "CHOPINA 32",
    "city": "KONIN",
    "state": "Woj. wielkopolskie",
    "postcode": "62-510",
    "telephone": "+48 571 303 378"
  },
  {
    "id": "12162933",
    "brand": "shell",
    "name": "2124 NTS INOWROCLAW.",
    "lat": 52.81017,
    "lng": 18.280387,
    "address": "TORUNSKA 181",
    "city": "INOWROCLAW",
    "state": "Woj. kujawsko-pomors",
    "postcode": "88-100",
    "telephone": "+48 571 303 068"
  },
  {
    "id": "10054679",
    "brand": "shell",
    "name": "4047 KONIN PICANTO.",
    "lat": 52.227581,
    "lng": 18.239382,
    "address": "POZNANSKA 48A",
    "city": "KONIN",
    "state": "Woj. wielkopolskie",
    "postcode": "62-510",
    "telephone": "+48 571 303 529"
  },
  {
    "id": "10048176",
    "brand": "shell",
    "name": "2115 TRZECIEWIEC.",
    "lat": 53.270145,
    "lng": 18.195645,
    "address": "TRZECIEWIEC 33A",
    "city": "DOBRCZ",
    "state": "Woj. kujawsko-pomors",
    "postcode": "86-022",
    "telephone": "+48 511 835 451"
  },
  {
    "id": "12224029",
    "brand": "shell",
    "name": "7202 BYDGOSZCZ TALDYKINA",
    "lat": 53.152863,
    "lng": 18.145282,
    "address": "TALDYKINA 3",
    "city": "BYDGOSZCZ",
    "state": "Woj. kujawsko-pomors",
    "postcode": "85-791",
    "telephone": "+48 571 303 069"
  },
  {
    "id": "10054870",
    "brand": "shell",
    "name": "2120 ZLAWIES WLK.",
    "lat": 53.09213,
    "lng": 18.331996,
    "address": "ZLAWIES WIELKA 7B",
    "city": "ZLAWIES WIELKA",
    "state": "Woj. kujawsko-pomors",
    "postcode": "87-134",
    "telephone": "+48 571 303 060"
  },
  {
    "id": "10034783",
    "brand": "shell",
    "name": "2102 FORDONSKA BYDG.",
    "lat": 53.121267,
    "lng": 18.058173,
    "address": "FORDONSKA 97",
    "city": "BYDGOSZCZ",
    "state": "Woj. kujawsko-pomors",
    "postcode": "85-739",
    "telephone": "+48 511 835 419"
  },
  {
    "id": "10054974",
    "brand": "shell",
    "name": "2117 MAKOWISKA.",
    "lat": 53.062875,
    "lng": 18.173849,
    "address": "MAKOWISKA 35",
    "city": "SOLEC KUJAWSKI",
    "state": "Woj. kujawsko-pomors",
    "postcode": "86-050",
    "telephone": "+48 506 303 214"
  },
  {
    "id": "10034784",
    "brand": "shell",
    "name": "2106 MAGNUSZEW. BYDG",
    "lat": 53.107567,
    "lng": 18.036863,
    "address": "WOJSKA POLSKIEGO 12",
    "city": "BYDGOSZCZ",
    "state": "Woj. kujawsko-pomors",
    "postcode": "85-171",
    "telephone": "+48 511 835 429"
  },
  {
    "id": "10034782",
    "brand": "shell",
    "name": "2101 TORPEDO BYDG",
    "lat": 53.125439,
    "lng": 17.989144,
    "address": "SW. TROJCY 34",
    "city": "BYDGOSZCZ",
    "state": "Woj. kujawsko-pomors",
    "postcode": "85-224",
    "telephone": "+48 511 823 738"
  },
  {
    "id": "10056712",
    "brand": "shell",
    "name": "2123 GWIAZDA BYDGOSZCZ",
    "lat": 53.137234,
    "lng": 17.95641,
    "address": "GRUNWALDZKA 203",
    "city": "BYDGOSZCZ",
    "state": "Woj. kujawsko-pomors",
    "postcode": "85-451",
    "telephone": "+48 571 303 067"
  },
  {
    "id": "12825023",
    "brand": "shell",
    "name": "2407 PAPIERNIA",
    "lat": 53.419604,
    "lng": 18.476626,
    "address": "WOJSKA POLSKIEGO 215",
    "city": "SWIECIE",
    "state": "Woj. kujawsko-pomors",
    "postcode": "86-105",
    "telephone": "+48 504 571 862"
  },
  {
    "id": "10054975",
    "brand": "shell",
    "name": "2118 BRZOZA MAC NOVA.",
    "lat": 53.044722,
    "lng": 18.003094,
    "address": "BYDGOSKA 15A",
    "city": "BRZOZA",
    "state": "Woj. kujawsko-pomors",
    "postcode": "86-061",
    "telephone": "+48 506 303 431"
  },
  {
    "id": "10050501",
    "brand": "shell",
    "name": "2119 BIALE BLOTA",
    "lat": 53.088164,
    "lng": 17.904072,
    "address": "NIZINNA 8",
    "city": "BIALE BLOTA",
    "state": "Woj. kujawsko-pomors",
    "postcode": "86-005",
    "telephone": "+48 511 835 654"
  },
  {
    "id": "10034789",
    "brand": "shell",
    "name": "2503 TORAK TORUN.",
    "lat": 53.030267,
    "lng": 18.611215,
    "address": "GRUDZIADZKA 120",
    "city": "TORUN",
    "state": "Woj. kujawsko-pomors",
    "postcode": "87-100",
    "telephone": "+48 571 303 061"
  },
  {
    "id": "10034877",
    "brand": "shell",
    "name": "2507 KOSCIUSZKI TORU.",
    "lat": 53.024544,
    "lng": 18.626757,
    "address": "KOSCIUSZKI 76",
    "city": "TORUN",
    "state": "Woj. kujawsko-pomors",
    "postcode": "87-101",
    "telephone": "+48 571 303 062"
  },
  {
    "id": "10034941",
    "brand": "shell",
    "name": "2510 SZOSA TORUN.",
    "lat": 53.019194,
    "lng": 18.640188,
    "address": "SZOSA LUBICKA 5-9",
    "city": "TORUN",
    "state": "Woj. kujawsko-pomors",
    "postcode": "87-100",
    "telephone": "+48 571 303 064"
  },
  {
    "id": "10034878",
    "brand": "shell",
    "name": "2508 MIKOLAJ TORUN.",
    "lat": 52.99854,
    "lng": 18.604854,
    "address": "PLAC ARMII KRAJOWEJ 1A",
    "city": "TORUN",
    "state": "Woj. kujawsko-pomors",
    "postcode": "87-100",
    "telephone": "+48 571 303 063"
  },
  {
    "id": "10034787",
    "brand": "shell",
    "name": "2401 FORMIT.",
    "lat": 53.485087,
    "lng": 18.753343,
    "address": "HALLERA 2",
    "city": "GRUDZIADZ",
    "state": "Woj. kujawsko-pomors",
    "postcode": "86-300",
    "telephone": "+48 571 303 224"
  },
  {
    "id": "13027020",
    "brand": "shell",
    "name": "8297 MALLES SZUBIN",
    "lat": 53.004461,
    "lng": 17.725528,
    "address": "KCYNSKA 45",
    "city": "SZUBIN",
    "state": "Woj. kujawsko-pomors",
    "postcode": "89-200",
    "telephone": "+48 500 102 562"
  },
  {
    "id": "10057219",
    "brand": "shell",
    "name": "2405 GRUDZIADZ TRASA",
    "lat": 53.48657,
    "lng": 18.79372,
    "address": "LYSKOWSKIEGO 88",
    "city": "GRUDZIADZ",
    "state": "Woj. kujawsko-pomors",
    "postcode": "86-300",
    "telephone": "+48 571 303 239"
  },
  {
    "id": "12481549",
    "brand": "shell",
    "name": "2604 STAROGARD NOWOWIEJSKA.",
    "lat": 53.965958,
    "lng": 18.516042,
    "address": "PILSUDSKIEGO 9",
    "city": "STAROGARD GDANSKI",
    "state": "Woj. pomorskie",
    "postcode": "83-200",
    "telephone": "+48 571 303 086"
  },
  {
    "id": "10054843",
    "brand": "shell",
    "name": "2210 OLSZE ZACHOD.",
    "lat": 53.888776,
    "lng": 18.630033,
    "address": "AUTOSTRADA A1 42KM KIER. LODZ",
    "city": "PELPLIN",
    "state": "Woj. pomorskie",
    "postcode": "83-130",
    "telephone": "+48 664 474 728"
  },
  {
    "id": "10054844",
    "brand": "shell",
    "name": "2209 OLSZE WSCHOD.",
    "lat": 53.88687,
    "lng": 18.631385,
    "address": "AUTOSTRADA A1 42KM KIER. GDANSK",
    "city": "PELPLIN",
    "state": "Woj. pomorskie",
    "postcode": "83-130",
    "telephone": "+48 664 474 718"
  },
  {
    "id": "10034785",
    "brand": "shell",
    "name": "2201 TCZEW.",
    "lat": 54.092912,
    "lng": 18.778681,
    "address": "SOLIDARNOSCI 6",
    "city": "TCZEW",
    "state": "Woj. pomorskie",
    "postcode": "83-110",
    "telephone": "+48 571 303 036"
  },
  {
    "id": "12191001",
    "brand": "shell",
    "name": "2035 GDANSK AK MUPPET",
    "lat": 54.33948,
    "lng": 18.55505,
    "address": "JANA PALUBICKIEGO 12",
    "city": "GDANSK",
    "state": "Woj. pomorskie",
    "postcode": "80-175",
    "telephone": "+48 571 303 127"
  },
  {
    "id": "10034871",
    "brand": "shell",
    "name": "2012 ELTOR GDANSK.",
    "lat": 54.314542,
    "lng": 18.62972,
    "address": "TRAKT SW. WOJCIECHA 223",
    "city": "GDANSK",
    "state": "Woj. pomorskie",
    "postcode": "80-017",
    "telephone": "+48 571 303 032"
  },
  {
    "id": "10034874",
    "brand": "shell",
    "name": "2016 PLATYNOWA GDAN.",
    "lat": 54.326657,
    "lng": 18.610199,
    "address": "SWIETORZYSKA 1",
    "city": "GDANSK",
    "state": "Woj. pomorskie",
    "postcode": "80-180",
    "telephone": "+48 571 303 034"
  },
  {
    "id": "10054686",
    "brand": "shell",
    "name": "2029 GORKA GDANSK",
    "lat": 54.346155,
    "lng": 18.604211,
    "address": "LOSTOWICKA 8",
    "city": "GDANSK",
    "state": "Woj. pomorskie",
    "postcode": "80-121",
    "telephone": "+48 571 303 035"
  },
  {
    "id": "12224032",
    "brand": "shell",
    "name": "7203 GDANSK MORENA",
    "lat": 54.350284,
    "lng": 18.594818,
    "address": "UL. NOWOLIPIE 2",
    "city": "GDANSK",
    "state": "Woj. pomorskie",
    "postcode": "80-172",
    "telephone": "+48 571 303 235"
  },
  {
    "id": "10050283",
    "brand": "shell",
    "name": "8242 JEZIORKI",
    "lat": 53.72345,
    "lng": 17.6985,
    "address": "JEZIORKI 33",
    "city": "CHOJNICE",
    "state": "Woj. pomorskie",
    "postcode": "89-620",
    "telephone": "+48 52 395 15 66"
  },
  {
    "id": "12224836",
    "brand": "shell",
    "name": "7209 WEJHEROWO PRZEMYSLOWA.",
    "lat": 54.608328,
    "lng": 18.222491,
    "address": "UL. PRZEMYSLOWA 1",
    "city": "WEJHEROWO",
    "state": "Woj. pomorskie",
    "postcode": "84-200",
    "telephone": "+48 511 805 273"
  },
  {
    "id": "10034778",
    "brand": "shell",
    "name": "2004 WEJHEROWO.",
    "lat": 54.6043,
    "lng": 18.251294,
    "address": "BRYGADY PANCERNEJ W.P 30",
    "city": "WEJHEROWO",
    "state": "Woj. pomorskie",
    "postcode": "84-200",
    "telephone": "+48 511 834 254"
  },
  {
    "id": "12224831",
    "brand": "shell",
    "name": "7208 RUMIA DABROWSKIEGO",
    "lat": 54.561366,
    "lng": 18.422413,
    "address": "UL. DABROWSKIEGO 143A",
    "city": "RUMIA",
    "state": "Woj. pomorskie",
    "postcode": "84-230",
    "telephone": "+48 571 303 246"
  },
  {
    "id": "10054665",
    "brand": "shell",
    "name": "2030 HUTNICZA.",
    "lat": 54.550282,
    "lng": 18.454838,
    "address": "HUTNICZA 35F",
    "city": "GDYNIA",
    "state": "Woj. pomorskie",
    "postcode": "81-038",
    "telephone": "+48 511 834 413"
  },
  {
    "id": "12224663",
    "brand": "shell",
    "name": "7205 GDYNIA CHYLONSKA",
    "lat": 54.544378,
    "lng": 18.465025,
    "address": "UL. CHYLONSKA 110A",
    "city": "GDYNIA",
    "state": "Woj. pomorskie",
    "postcode": "81-033",
    "telephone": "+48 571 303 452"
  },
  {
    "id": "12812572",
    "brand": "shell",
    "name": "2025 DONAS",
    "lat": 54.458833,
    "lng": 18.454861,
    "address": "KRZEMOWA 1",
    "city": "GDYNIA",
    "state": "Woj. pomorskie",
    "postcode": "81-577",
    "telephone": "+48 504 572 022"
  },
  {
    "id": "12224671",
    "brand": "shell",
    "name": "7207 GDYNIA UNRUGA",
    "lat": 54.549378,
    "lng": 18.512829,
    "address": "UL. SZLIFIERZY 1",
    "city": "GDYNIA",
    "state": "Woj. pomorskie",
    "postcode": "81-190",
    "telephone": "+48 571 303 131"
  },
  {
    "id": "10034779",
    "brand": "shell",
    "name": "2006 MORSKA GDYNIA.",
    "lat": 54.526846,
    "lng": 18.51255,
    "address": "MORSKA 58",
    "city": "GDYNIA",
    "state": "Woj. pomorskie",
    "postcode": "81-225",
    "telephone": "+48 511 836 534"
  },
  {
    "id": "10034875",
    "brand": "shell",
    "name": "2024 PORT GDYNIA.",
    "lat": 54.529052,
    "lng": 18.513668,
    "address": "J.WISNIEWSKIEGO 13",
    "city": "GDYNIA",
    "state": "Woj. pomorskie",
    "postcode": "81-335",
    "telephone": "+48 511 836 549"
  },
  {
    "id": "10034781",
    "brand": "shell",
    "name": "2010 KARWINY GDYNIA.",
    "lat": 54.471409,
    "lng": 18.491006,
    "address": "CHWASZCZYNSKA 10",
    "city": "GDYNIA",
    "state": "Woj. pomorskie",
    "postcode": "81-571",
    "telephone": "+48 511 836 539"
  },
  {
    "id": "12071514",
    "brand": "shell",
    "name": "2034 PUCK HELSKA",
    "lat": 54.715326,
    "lng": 18.393385,
    "address": "HELSKA 14",
    "city": "PUCK",
    "state": "Woj. pomorskie",
    "postcode": "84-100",
    "telephone": "+48 571 303 457"
  },
  {
    "id": "10034776",
    "brand": "shell",
    "name": "2002 KLIF GDYNIA.",
    "lat": 54.472897,
    "lng": 18.553643,
    "address": "ZWYCIESTWA 256",
    "city": "GDYNIA",
    "state": "Woj. pomorskie",
    "postcode": "81-545",
    "telephone": "+48 511 836 179"
  },
  {
    "id": "10034777",
    "brand": "shell",
    "name": "2003 MIRAMAR.",
    "lat": 54.459329,
    "lng": 18.55503,
    "address": "NIEPODLEGLOSCI 897",
    "city": "SOPOT",
    "state": "Woj. pomorskie",
    "postcode": "81-861",
    "telephone": "+48 511 835 790"
  },
  {
    "id": "10034780",
    "brand": "shell",
    "name": "2008 OPACKA GDANSK.",
    "lat": 54.41565,
    "lng": 18.565639,
    "address": "GRUNWALDZKA 560",
    "city": "GDANSK",
    "state": "Woj. pomorskie",
    "postcode": "80-320",
    "telephone": "+48 511 835 824"
  },
  {
    "id": "10034942",
    "brand": "shell",
    "name": "2603 SLUPSKA LEBORK.",
    "lat": 54.526679,
    "lng": 17.738022,
    "address": "SLUPSKA 26",
    "city": "LEBORK",
    "state": "Woj. pomorskie",
    "postcode": "84-300",
    "telephone": "+48 511 838 217"
  },
  {
    "id": "10034775",
    "brand": "shell",
    "name": "2001 CTO GDANSK.",
    "lat": 54.400875,
    "lng": 18.591732,
    "address": "RZECZYPOSPOLITEJ 6A",
    "city": "GDANSK",
    "state": "Woj. pomorskie",
    "postcode": "80-369",
    "telephone": "+48 511 834 887"
  },
  {
    "id": "12229884",
    "brand": "shell",
    "name": "2036 GDANSK MARYNARKI POLSKIEJ",
    "lat": 54.384721,
    "lng": 18.641282,
    "address": "MARYNARKI POLSKIEJ 98A",
    "city": "GDANSK",
    "state": "Woj. pomorskie",
    "postcode": "80-557",
    "telephone": "+48 571 303 065"
  },
  {
    "id": "12017490",
    "brand": "shell",
    "name": "3621 ZYWIEC WESOLA",
    "lat": 49.690178,
    "lng": 19.182897,
    "address": "WESOLA 64",
    "city": "ZYWIEC",
    "state": "Woj. slaskie",
    "postcode": "34-300",
    "telephone": "+48 724 773 777"
  },
  {
    "id": "12169499",
    "brand": "shell",
    "name": "3622 BIELSKO BIALA KRYSZTALOWA",
    "lat": 49.841639,
    "lng": 19.068399,
    "address": "KRAUSA 50",
    "city": "BIELSKO BIALA",
    "state": "Woj. slaskie",
    "postcode": "43-346",
    "telephone": "+48 511 792 841"
  },
  {
    "id": "10034959",
    "brand": "shell",
    "name": "3611 CIESZYNSKA BB.",
    "lat": 49.813317,
    "lng": 19.012578,
    "address": "CIESZYNSKA 160",
    "city": "BIELSKO-BIALA",
    "state": "Woj. slaskie",
    "postcode": "43-300",
    "telephone": "+48 511 840 968"
  },
  {
    "id": "10034958",
    "brand": "shell",
    "name": "3610 NIEPODLEGL. BB.",
    "lat": 49.850034,
    "lng": 19.051374,
    "address": "DASZYNSKIEGO 54",
    "city": "BIELSKO-BIALA",
    "state": "Woj. slaskie",
    "postcode": "43-346",
    "telephone": "+48 511 840 629"
  },
  {
    "id": "10034826",
    "brand": "shell",
    "name": "3602 BIELCAR BB.",
    "lat": 49.842069,
    "lng": 19.036303,
    "address": "WARSZAWSKA 156",
    "city": "BIELSKO-BIALA",
    "state": "Woj. slaskie",
    "postcode": "43-300",
    "telephone": "+48 511 839 976"
  },
  {
    "id": "10034980",
    "brand": "shell",
    "name": "5504 JASIENICA.",
    "lat": 49.813162,
    "lng": 18.92019,
    "address": "JASIENICA 75",
    "city": "JASIENICA",
    "state": "Woj. slaskie",
    "postcode": "43-385",
    "telephone": "+48 33 829 01 41"
  },
  {
    "id": "10058085",
    "brand": "shell",
    "name": "3619 SWIETOSZOWKA FRY.",
    "lat": 49.804423,
    "lng": 18.890039,
    "address": "SWIETOSZOWKA 193",
    "city": "SWIETOSZOWKA",
    "state": "Woj. slaskie",
    "postcode": "43-386",
    "telephone": "+48 502 263 798"
  },
  {
    "id": "12849567",
    "brand": "shell",
    "name": "8367 JAWORNIK",
    "lat": 49.86571,
    "lng": 19.90925,
    "address": "JAWORNIK 586",
    "city": "JAWORNIK",
    "state": "Woj. malopolskie",
    "postcode": "32-400",
    "telephone": "+48 12 372 11 60"
  },
  {
    "id": "12871226",
    "brand": "shell",
    "name": "8368 MYSLENICE",
    "lat": 49.8368,
    "lng": 19.95793,
    "address": "SLOWACKIEGO 75 B",
    "city": "MYSLENICE",
    "state": "Woj. malopolskie",
    "postcode": "32-400",
    "telephone": "+48 12 271 68 56"
  },
  {
    "id": "12016752",
    "brand": "shell",
    "name": "3620 ZAKOPANE",
    "lat": 49.287702,
    "lng": 19.970913,
    "address": "CHALUBINSKIEGO 31",
    "city": "ZAKOPANE",
    "state": "Woj. malopolskie",
    "postcode": "34-500",
    "telephone": "+48 571 303 136"
  },
  {
    "id": "10034811",
    "brand": "shell",
    "name": "3023 CHRZANOW.",
    "lat": 50.14403,
    "lng": 19.418126,
    "address": "TRZEBINSKA 72",
    "city": "CHRZANOW",
    "state": "Woj. malopolskie",
    "postcode": "32-500",
    "telephone": "+48 571 303 148"
  },
  {
    "id": "12190367",
    "brand": "shell",
    "name": "3082 JAWORZNO WSPOLPRACY.",
    "lat": 50.175156,
    "lng": 19.29359,
    "address": "KRAKOWSKA",
    "city": "JAWORZNO",
    "state": "Woj. slaskie",
    "postcode": "43-607",
    "telephone": "+48 571 303 149"
  },
  {
    "id": "10034812",
    "brand": "shell",
    "name": "3024 SZOPA SOSNOWIEC",
    "lat": 50.292092,
    "lng": 19.21728,
    "address": "T. LENARTOWICZA 99",
    "city": "SOSNOWIEC",
    "state": "Woj. slaskie",
    "postcode": "41-219",
    "telephone": "+48 511 821 257"
  },
  {
    "id": "12671340",
    "brand": "shell",
    "name": "8625 ABAWO",
    "lat": 50.223509,
    "lng": 19.226525,
    "address": "WOJSKA POLSKIEGO 2 AE",
    "city": "JAWORZNO",
    "state": "Woj. slaskie",
    "postcode": "43-603",
    "telephone": "+48 662 725 880"
  },
  {
    "id": "10034802",
    "brand": "shell",
    "name": "3014 SZEJK SOSNOWIEC.",
    "lat": 50.313561,
    "lng": 19.194642,
    "address": "BRACI MIEROSZEWSKICH",
    "city": "SOSNOWIEC",
    "state": "Woj. slaskie",
    "postcode": "41-219",
    "telephone": "+48 511 843 671"
  },
  {
    "id": "12661640",
    "brand": "shell",
    "name": "3003 SOSNOWIEC SOSNA",
    "lat": 50.256368,
    "lng": 19.188144,
    "address": "UL. INNOWACYJNA 1",
    "city": "SOSNOWIEC",
    "state": "Woj. slaskie",
    "postcode": "41-208",
    "telephone": "+48 503 861 589"
  },
  {
    "id": "10034880",
    "brand": "shell",
    "name": "3025 MAKRO SOSNOWIEC",
    "lat": 50.312662,
    "lng": 19.187448,
    "address": "ZAGLEBIA DABROWSKIEGO 21",
    "city": "SOSNOWIEC",
    "state": "Woj. slaskie",
    "postcode": "41-219",
    "telephone": "+48 511 845 324"
  },
  {
    "id": "10034794",
    "brand": "shell",
    "name": "3004 SOBIESKIEGO DG",
    "lat": 50.323022,
    "lng": 19.166808,
    "address": "SOBIESKIEGO",
    "city": "DABROWA GORNICZA",
    "state": "Woj. slaskie",
    "postcode": "41-300",
    "telephone": "+48 511 821 245"
  },
  {
    "id": "10050502",
    "brand": "shell",
    "name": "3126 JERZMANOWICE.",
    "lat": 50.222607,
    "lng": 19.742651,
    "address": "GOTKOWICE 84",
    "city": "JERZMANOWICE",
    "state": "Woj. malopolskie",
    "postcode": "32-048",
    "telephone": "+48 503 463 328"
  },
  {
    "id": "10054873",
    "brand": "shell",
    "name": "3065 MIKOLAJ SOSNOWI.",
    "lat": 50.263437,
    "lng": 19.148375,
    "address": "MIKOLAJCZYKA 31",
    "city": "SOSNOWIEC",
    "state": "Woj. slaskie",
    "postcode": "41-200",
    "telephone": "+48 511 845 391"
  },
  {
    "id": "12787224",
    "brand": "shell",
    "name": "8654 ZAWIERCIE",
    "lat": 50.486167,
    "lng": 19.397694,
    "address": "ZAGLEBIOWSKA 3",
    "city": "ZAWIERCIE",
    "state": "Woj. slaskie",
    "postcode": "42-400",
    "telephone": "+48 690 129 168"
  },
  {
    "id": "12821402",
    "brand": "shell",
    "name": "8639 LIBIAZ",
    "lat": 50.090657,
    "lng": 19.301449,
    "address": "KRAKOWSKA 65",
    "city": "LIBIAZ",
    "state": "Woj. malopolskie",
    "postcode": "32-590",
    "telephone": "+48 33 447 40 31"
  },
  {
    "id": "10034809",
    "brand": "shell",
    "name": "3021 SILESIA",
    "lat": 50.247105,
    "lng": 19.12389,
    "address": "KATOWICKA 35",
    "city": "MYSLOWICE",
    "state": "Woj. slaskie",
    "postcode": "41-400",
    "telephone": "+48 511 820 943"
  },
  {
    "id": "10034807",
    "brand": "shell",
    "name": "3019 SZPITAL.",
    "lat": 50.303272,
    "lng": 19.117921,
    "address": "SPACEROWA 1D",
    "city": "CZELADZ",
    "state": "Woj. slaskie",
    "postcode": "41-253",
    "telephone": "+48 511 821 517"
  },
  {
    "id": "10034795",
    "brand": "shell",
    "name": "3005 PILSUDSKI. SOSN.",
    "lat": 50.284931,
    "lng": 19.103593,
    "address": "KRESOWA 2",
    "city": "SOSNOWIEC",
    "state": "Woj. slaskie",
    "postcode": "41-200",
    "telephone": "+48 511 843 615"
  },
  {
    "id": "12224669",
    "brand": "shell",
    "name": "7921 CZELADZ BEDZINSKA",
    "lat": 50.321893,
    "lng": 19.103299,
    "address": "UL. BEDZINSKA 80",
    "city": "CZELADZ",
    "state": "Woj. slaskie",
    "postcode": "41-250",
    "telephone": "+48 801 440 088"
  },
  {
    "id": "10034947",
    "brand": "shell",
    "name": "3039 ROZDZIENSK. KAT",
    "lat": 50.271439,
    "lng": 19.066061,
    "address": "ROZDZIENSKIEGO 210A",
    "city": "KATOWICE",
    "state": "Woj. slaskie",
    "postcode": "40-315",
    "telephone": "+48 511 821 039"
  },
  {
    "id": "12224840",
    "brand": "shell",
    "name": "7309 KATOWICE BERG",
    "lat": 50.253474,
    "lng": 19.034005,
    "address": "UL. GRANICZNA 30",
    "city": "KATOWICE",
    "state": "Woj. slaskie",
    "postcode": "40-020",
    "telephone": "+48 571 303 134"
  },
  {
    "id": "12733880",
    "brand": "shell",
    "name": "3026 MLYNOWKA",
    "lat": 50.031117,
    "lng": 19.272574,
    "address": "FABRYCZNA 1J",
    "city": "OSWIECIM",
    "state": "Woj. malopolskie",
    "postcode": "32-600",
    "telephone": "+48 504 370 770"
  },
  {
    "id": "10034808",
    "brand": "shell",
    "name": "3020 MIKOLOWSKA KAT.",
    "lat": 50.254422,
    "lng": 19.009827,
    "address": "MIKOLOWSKA 23A",
    "city": "KATOWICE",
    "state": "Woj. slaskie",
    "postcode": "40-074",
    "telephone": "+48 571 303 056"
  },
  {
    "id": "10048177",
    "brand": "shell",
    "name": "3054 TRIGRANIT KAT.",
    "lat": 50.27199,
    "lng": 19.008061,
    "address": "SCIEGIENNEGO 58",
    "city": "KATOWICE",
    "state": "Woj. slaskie",
    "postcode": "40-546",
    "telephone": "+48 571 303 269"
  },
  {
    "id": "11955474",
    "brand": "shell",
    "name": "5413 BRUDZOWICE",
    "lat": 50.512635,
    "lng": 19.196024,
    "address": "KATOWICKA",
    "city": "BRUDZOWICE",
    "state": "Woj. slaskie",
    "postcode": "42-470",
    "telephone": "+48 511 821 958"
  },
  {
    "id": "10045403",
    "brand": "shell",
    "name": "3050 JANKEGO KAT.",
    "lat": 50.22057,
    "lng": 18.990121,
    "address": "JANKEGO 15",
    "city": "KATOWICE",
    "state": "Woj. slaskie",
    "postcode": "40-546",
    "telephone": "+48 571 303 058"
  },
  {
    "id": "10034797",
    "brand": "shell",
    "name": "3009 CENTROSTAL KAT.",
    "lat": 50.22314,
    "lng": 18.988093,
    "address": "KOSCIUSZKI 231",
    "city": "KATOWICE",
    "state": "Woj. slaskie",
    "postcode": "40-610",
    "telephone": "+48 571 303 051"
  },
  {
    "id": "10034798",
    "brand": "shell",
    "name": "3010 FABRYCZNA KAT.",
    "lat": 50.218663,
    "lng": 18.984201,
    "address": "KOSCIUSZKI 322",
    "city": "KATOWICE",
    "state": "Woj. slaskie",
    "postcode": "40-608",
    "telephone": "+48 571 303 052"
  },
  {
    "id": "12224529",
    "brand": "shell",
    "name": "7841 KATOWICE TRASA RENCOW",
    "lat": 50.273017,
    "lng": 18.972161,
    "address": "UL. TRASA RENCOW 28",
    "city": "KATOWICE",
    "state": "Woj. slaskie",
    "postcode": "40-002",
    "telephone": "+48 801 440 088"
  },
  {
    "id": "10034803",
    "brand": "shell",
    "name": "3015 BIELSKA TYCHY.",
    "lat": 50.137405,
    "lng": 19.024967,
    "address": "BESKIDZKA",
    "city": "TYCHY",
    "state": "Woj. slaskie",
    "postcode": "43-100",
    "telephone": "+48 511 798 516"
  },
  {
    "id": "10034946",
    "brand": "shell",
    "name": "3038 LIGOCKA KAT.",
    "lat": 50.233481,
    "lng": 18.975525,
    "address": "LIGOCKA 125",
    "city": "KATOWICE",
    "state": "Woj. slaskie",
    "postcode": "40-568",
    "telephone": "+48 571 303 057"
  },
  {
    "id": "10034943",
    "brand": "shell",
    "name": "3035 CHORZOW.",
    "lat": 50.286845,
    "lng": 18.965516,
    "address": "WOJSKA POLSKIEGO 22",
    "city": "CHORZOW",
    "state": "Woj. slaskie",
    "postcode": "41-500",
    "telephone": "+48 511 805 942"
  },
  {
    "id": "10034950",
    "brand": "shell",
    "name": "3042 OSWIECIMSKA TYC.",
    "lat": 50.130157,
    "lng": 18.997139,
    "address": "OSWIECIMSKA 25",
    "city": "TYCHY",
    "state": "Woj. slaskie",
    "postcode": "43-100",
    "telephone": "+48 511 798 754"
  },
  {
    "id": "10058138",
    "brand": "shell",
    "name": "3131 MIROWSKA KRAKOW.",
    "lat": 50.032195,
    "lng": 19.812547,
    "address": "PRZEMYSLOWA 8",
    "city": "KRYSPINOW",
    "state": "Woj. malopolskie",
    "postcode": "32-060",
    "telephone": "+48 519 433 438"
  },
  {
    "id": "10034810",
    "brand": "shell",
    "name": "3022 WITCZAKA BYTOM.",
    "lat": 50.345605,
    "lng": 18.929608,
    "address": "KRAKOWSKA 27/31",
    "city": "BYTOM",
    "state": "Woj. slaskie",
    "postcode": "41-902",
    "telephone": "+48 511 796 245"
  },
  {
    "id": "10034804",
    "brand": "shell",
    "name": "3016 BYTOMSKA CHORZ.",
    "lat": 50.304504,
    "lng": 18.920072,
    "address": "3 MAJA 199",
    "city": "CHORZOW",
    "state": "Woj. slaskie",
    "postcode": "41-500",
    "telephone": "+48 32 241 02 03"
  },
  {
    "id": "10034883",
    "brand": "shell",
    "name": "3045 LECLERC TYCHY",
    "lat": 50.127008,
    "lng": 18.974563,
    "address": "BUDOWLANYCH 63",
    "city": "TYCHY",
    "state": "Woj. slaskie",
    "postcode": "43-100",
    "telephone": "+48 511 799 632"
  },
  {
    "id": "10034928",
    "brand": "shell",
    "name": "7002 BESKIDZKA TYCHY",
    "lat": 50.088201,
    "lng": 19.006063,
    "address": "BESKIDZKA 101",
    "city": "TYCHY",
    "state": "Woj. slaskie",
    "postcode": "43-100",
    "telephone": "+48 511 802 658"
  },
  {
    "id": "10034953",
    "brand": "shell",
    "name": "3117 IKEA CONR. KRA.",
    "lat": 50.088549,
    "lng": 19.901675,
    "address": "CONRADA 33",
    "city": "KRAKOW",
    "state": "Woj. malopolskie",
    "postcode": "31-357",
    "telephone": "+48 511 814 329"
  },
  {
    "id": "10034884",
    "brand": "shell",
    "name": "3110 CONRADA KRA.",
    "lat": 50.089537,
    "lng": 19.902755,
    "address": "CONRADA 36",
    "city": "KRAKOW",
    "state": "Woj. malopolskie",
    "postcode": "31-357",
    "telephone": "+48 511 814 287"
  },
  {
    "id": "12224835",
    "brand": "shell",
    "name": "7308 SWIETOCHLOWICE SLASKA.",
    "lat": 50.281315,
    "lng": 18.912153,
    "address": "UL. SLASKA 10",
    "city": "SWIETOCHLOWICE SL.",
    "state": "Woj. slaskie",
    "postcode": "41-600",
    "telephone": "+48 571 303 278"
  },
  {
    "id": "10034955",
    "brand": "shell",
    "name": "3119 BRATYSLAW. KRA.",
    "lat": 50.085136,
    "lng": 19.934355,
    "address": "BRATYSLAWSKA 1",
    "city": "KRAKOW",
    "state": "Woj. malopolskie",
    "postcode": "31-201",
    "telephone": "+48 511 814 469"
  },
  {
    "id": "10055391",
    "brand": "shell",
    "name": "3068 WIREK RUDA S",
    "lat": 50.253271,
    "lng": 18.882224,
    "address": "ALEJA PIASTOW SLASKICH 10",
    "city": "RUDA SLASKA",
    "state": "Woj. slaskie",
    "postcode": "41-710",
    "telephone": "+48 571 303 749"
  },
  {
    "id": "12224849",
    "brand": "shell",
    "name": "7310 BYTOM PUSZKINA",
    "lat": 50.337951,
    "lng": 18.886112,
    "address": "UL. PUSZKINA 1",
    "city": "BYTOM",
    "state": "Woj. slaskie",
    "postcode": "41-900",
    "telephone": "+48 571 303 247"
  },
  {
    "id": "10055392",
    "brand": "shell",
    "name": "3067 HALEMBA RUDA S",
    "lat": 50.251601,
    "lng": 18.880627,
    "address": "ALEJA PIASTOW SLASKICH 11",
    "city": "RUDA SLASKA",
    "state": "Woj. slaskie",
    "postcode": "41-706",
    "telephone": "+48 574 303 754"
  },
  {
    "id": "12406640",
    "brand": "shell",
    "name": "3623 WEGRZCE",
    "lat": 50.116522,
    "lng": 19.967644,
    "address": "UL. WARSZAWSKA 28B.",
    "city": "WEGRZCE",
    "state": "Woj. malopolskie",
    "postcode": "32-086",
    "telephone": "+48 571 303 758"
  },
  {
    "id": "10034948",
    "brand": "shell",
    "name": "3040 PSZCZYNSKA.",
    "lat": 50.166182,
    "lng": 18.903759,
    "address": "PSZCZYNSKA 24",
    "city": "MIKOLOW",
    "state": "Woj. slaskie",
    "postcode": "43-190",
    "telephone": "+48 511 798 704"
  },
  {
    "id": "10034796",
    "brand": "shell",
    "name": "3007 WESTERPLATTE RU.",
    "lat": 50.275276,
    "lng": 18.871038,
    "address": "OBRONCOW WESTERPLATTE 22",
    "city": "RUDA SLASKA",
    "state": "Woj. slaskie",
    "postcode": "41-710",
    "telephone": "+48 571 303 274"
  },
  {
    "id": "12224532",
    "brand": "shell",
    "name": "7861 STRZELCOW BYTOM",
    "lat": 50.378274,
    "lng": 18.889479,
    "address": "UL. STRZELCOW BYTOMSKICH 96",
    "city": "BYTOM",
    "state": "Woj. slaskie",
    "postcode": "41-902",
    "telephone": "+48 801 440 088"
  },
  {
    "id": "12224657",
    "brand": "shell",
    "name": "7314 KRAKOW KOBIERZYNSKA",
    "lat": 50.019055,
    "lng": 19.906763,
    "address": "UL. KOBIERZYNSKA 144",
    "city": "KRAKOW",
    "state": "Woj. malopolskie",
    "postcode": "30-382",
    "telephone": "+48 511 814 635"
  },
  {
    "id": "10034885",
    "brand": "shell",
    "name": "3112 KONOPNICKA KRA.",
    "lat": 50.040139,
    "lng": 19.93745,
    "address": "MARII KONOPNICKIEJ 78",
    "city": "KRAKOW",
    "state": "Woj. malopolskie",
    "postcode": "30-333",
    "telephone": "+48 511 816 597"
  },
  {
    "id": "12789340",
    "brand": "shell",
    "name": "3085 MARGRABIA",
    "lat": 50.499763,
    "lng": 18.938517,
    "address": "WOZNICKA 75",
    "city": "MIASTECZKO SLASKIE",
    "state": "Woj. slaskie",
    "postcode": "42-610",
    "telephone": "+48 793 399 090"
  },
  {
    "id": "10034816",
    "brand": "shell",
    "name": "3104 ZAKOPIANSKA KRA",
    "lat": 50.021748,
    "lng": 19.933316,
    "address": "ZAKOPIANSKA 48",
    "city": "KRAKOW",
    "state": "Woj. malopolskie",
    "postcode": "30-418",
    "telephone": "+48 511 814 597"
  },
  {
    "id": "10034801",
    "brand": "shell",
    "name": "3013 LAZISKA",
    "lat": 50.158132,
    "lng": 18.847688,
    "address": "KLONOWA 1",
    "city": "LAZISKA GORNE",
    "state": "Woj. slaskie",
    "postcode": "43-170",
    "telephone": "+48 571 303 054"
  },
  {
    "id": "10034931",
    "brand": "shell",
    "name": "7005 POKOJU KRAKOW.",
    "lat": 50.064784,
    "lng": 19.995353,
    "address": "POKOJU 65",
    "city": "KRAKOW",
    "state": "Woj. malopolskie",
    "postcode": "31-564",
    "telephone": "+48 511 821 223"
  },
  {
    "id": "10034815",
    "brand": "shell",
    "name": "3103 KABEL KRA.",
    "lat": 50.033349,
    "lng": 19.969442,
    "address": "WIELICKA 77",
    "city": "KRAKOW",
    "state": "Woj. malopolskie",
    "postcode": "30-552",
    "telephone": "+48 511 834 625"
  },
  {
    "id": "12224845",
    "brand": "shell",
    "name": "7315 KRAKOW SLIWKOWA.",
    "lat": 50.072716,
    "lng": 20.018872,
    "address": "UL. JANA PAWLA II 186",
    "city": "KRAKOW",
    "state": "Woj. malopolskie",
    "postcode": "31-982",
    "telephone": "+48 571 303 132"
  },
  {
    "id": "10034954",
    "brand": "shell",
    "name": "3118 STOJALOW. KRA.",
    "lat": 50.006108,
    "lng": 19.945502,
    "address": "STOJALOWSKIEGO 1",
    "city": "KRAKOW",
    "state": "Woj. malopolskie",
    "postcode": "30-611",
    "telephone": "+48 511 816 625"
  },
  {
    "id": "10034886",
    "brand": "shell",
    "name": "3113 WITOSA KRA.",
    "lat": 50.013108,
    "lng": 19.960209,
    "address": "WITOSA 20",
    "city": "KRAKOW",
    "state": "Woj. malopolskie",
    "postcode": "30-612",
    "telephone": "+48 511 834 668"
  },
  {
    "id": "10034799",
    "brand": "shell",
    "name": "3011 PSZCZYNA",
    "lat": 49.969906,
    "lng": 18.945328,
    "address": "BIELSKA",
    "city": "PSZCZYNA",
    "state": "Woj. slaskie",
    "postcode": "43-200",
    "telephone": "+48 571 303 074"
  },
  {
    "id": "10034825",
    "brand": "shell",
    "name": "3601 CZECHOW DZIEDZ.",
    "lat": 49.930036,
    "lng": 18.991503,
    "address": "TRASA DK1 / WEGLOWA",
    "city": "CZECHOWICE DZIEDZICE",
    "state": "Woj. slaskie",
    "postcode": "43-502",
    "telephone": "+48 511 839 883"
  },
  {
    "id": "10034930",
    "brand": "shell",
    "name": "7004 LEGIONOW CZECHO.",
    "lat": 49.904508,
    "lng": 19.001814,
    "address": "LEGIONOW 88A",
    "city": "CZECHOWICE DZIEDZICE",
    "state": "Woj. slaskie",
    "postcode": "43-502",
    "telephone": "+48 511 841 583"
  },
  {
    "id": "12994549",
    "brand": "shell",
    "name": "8371 JARONOWICE",
    "lat": 50.655,
    "lng": 20.058056,
    "address": "DK 78 97B",
    "city": "JARONOWICE",
    "state": "Woj. swietokrzyskie",
    "postcode": "28-362",
    "telephone": "+48 41 351 43 06"
  },
  {
    "id": "12224526",
    "brand": "shell",
    "name": "7811 NOWY SACZ GORZKOWSKA",
    "lat": 49.605211,
    "lng": 20.725338,
    "address": "UL. GORZKOWSKA 32",
    "city": "NOWY SACZ",
    "state": "Woj. malopolskie",
    "postcode": "33-300",
    "telephone": "+48 801 440 088"
  },
  {
    "id": "10034957",
    "brand": "shell",
    "name": "3307 NOWY SACZ.",
    "lat": 49.616294,
    "lng": 20.717146,
    "address": "PILSUDSKIEGO 4",
    "city": "NOWY SACZ",
    "state": "Woj. malopolskie",
    "postcode": "33-300",
    "telephone": "+48 511 821 068"
  },
  {
    "id": "12851434",
    "brand": "shell",
    "name": "3134 LIMANOWA",
    "lat": 49.709533,
    "lng": 20.42209,
    "address": "JANA PAWLA II 17",
    "city": "LIMANOWA",
    "state": "Woj. malopolskie",
    "postcode": "34-600",
    "telephone": "+48 571 606 626"
  },
  {
    "id": "12870796",
    "brand": "shell",
    "name": "8369 DOBCZYCE",
    "lat": 49.880333,
    "lng": 20.103972,
    "address": "GARNCARSKA 6",
    "city": "DOBCZYCE",
    "state": "Woj. malopolskie",
    "postcode": "32-410",
    "telephone": "+48 12 271 01 01"
  },
  {
    "id": "10056686",
    "brand": "shell",
    "name": "8341 MILA",
    "lat": 50.261087,
    "lng": 20.72839,
    "address": "KRASNIOW 25",
    "city": "OPATOWIEC",
    "state": "Woj. swietokrzyskie",
    "postcode": "28-520",
    "telephone": "+48 607 521 350"
  },
  {
    "id": "10045393",
    "brand": "shell",
    "name": "8357 BUSKO.",
    "lat": 50.457243,
    "lng": 20.781126,
    "address": "SZCZAWORYZ 2",
    "city": "BUSKO ZDROJ",
    "state": "Woj. swietokrzyskie",
    "postcode": "28-100",
    "telephone": "+48 41 376 11 10"
  },
  {
    "id": "13035607",
    "brand": "shell",
    "name": "8370 BRZESKO CMC",
    "lat": 49.99093,
    "lng": 20.61283,
    "address": "MIKOLAJA KOPERNIKA 20A",
    "city": "BRZESKO",
    "state": "Woj. malopolskie",
    "postcode": "32-800",
    "telephone": "+48 14 686 45 88"
  },
  {
    "id": "12799904",
    "brand": "shell",
    "name": "8358 BZW PARA",
    "lat": 50.468056,
    "lng": 20.740278,
    "address": "DK 73 111",
    "city": "BUSKO ZDROJ",
    "state": "Woj. swietokrzyskie",
    "postcode": "28-100",
    "telephone": "+48 664 476 665"
  },
  {
    "id": "12283152",
    "brand": "shell",
    "name": "8363 BRZESKO 2 NTI",
    "lat": 49.966256,
    "lng": 20.600149,
    "address": "U. BIZNESOWA 3",
    "city": "BRZESKO",
    "state": "Woj. malopolskie",
    "postcode": "32-800",
    "telephone": "+48 601 090 722"
  },
  {
    "id": "12821832",
    "brand": "shell",
    "name": "8366 BOCHNIA",
    "lat": 49.976667,
    "lng": 20.447139,
    "address": "UL. BRZESKA 52",
    "city": "BOCHNIA",
    "state": "Woj. malopolskie",
    "postcode": "32-700",
    "telephone": "+48 14 686 45 90"
  },
  {
    "id": "10034821",
    "brand": "shell",
    "name": "3302 NOWODABROW. TAR.",
    "lat": 50.03603,
    "lng": 21.00332,
    "address": "NOWODABROWSKA 139",
    "city": "TARNOW",
    "state": "Woj. malopolskie",
    "postcode": "33-100",
    "telephone": "+48 511 842 932"
  },
  {
    "id": "10034820",
    "brand": "shell",
    "name": "3301 SZUJSKIEGO TARN.",
    "lat": 50.014607,
    "lng": 20.974772,
    "address": "SZUJSKIEGO 16",
    "city": "TARNOW",
    "state": "Woj. malopolskie",
    "postcode": "33-100",
    "telephone": "+48 511 842 694"
  },
  {
    "id": "13023717",
    "brand": "shell",
    "name": "8372 GNOJNIK",
    "lat": 49.90578,
    "lng": 20.60543,
    "address": "GNOJNIK 528",
    "city": "GNOJNIK",
    "state": "Woj. malopolskie",
    "postcode": "32-864",
    "telephone": "+48 14 686 99 10"
  },
  {
    "id": "10054845",
    "brand": "shell",
    "name": "3128 NIEPOLOMICE.",
    "lat": 50.040921,
    "lng": 20.221721,
    "address": "STEFANA BATOREGO 25A",
    "city": "NIEPOLOMICE",
    "state": "Woj. malopolskie",
    "postcode": "32-005",
    "telephone": "+48 511 834 846"
  },
  {
    "id": "10058139",
    "brand": "shell",
    "name": "3132 IGOLOMSKA KRAKO.",
    "lat": 50.076412,
    "lng": 20.15326,
    "address": "IGOLOMSKA",
    "city": "KRAKOW",
    "state": "Woj. malopolskie",
    "postcode": "31-998",
    "telephone": "+48 519 185 036"
  },
  {
    "id": "10034750",
    "brand": "shell",
    "name": "8313 KSIAZ WIELKI.",
    "lat": 50.486422,
    "lng": 20.182383,
    "address": "MOCZYDLO 82",
    "city": "MOCZYDLO",
    "state": "Woj. malopolskie",
    "postcode": "32-210",
    "telephone": "+48 41 383 87 68"
  },
  {
    "id": "12712194",
    "brand": "shell",
    "name": "8627 PKS STASZOW",
    "lat": 50.554906,
    "lng": 21.158472,
    "address": "KRAKOWSKA 51",
    "city": "STASZOW",
    "state": "Woj. swietokrzyskie",
    "postcode": "28-200",
    "telephone": "+48 609 564 166"
  },
  {
    "id": "12862235",
    "brand": "shell",
    "name": "1159 CHAMPION",
    "lat": 51.084747,
    "lng": 19.381011,
    "address": "ARISTIDE MERLONIEGO 1",
    "city": "RADOMSKO",
    "state": "Woj. lodzkie",
    "postcode": "97-500",
    "telephone": ""
  },
  {
    "id": "12225532",
    "brand": "shell",
    "name": "1155 RADOMSKO",
    "lat": 51.064484,
    "lng": 19.443223,
    "address": "KRAKOWSKA 20",
    "city": "RADOMSKO",
    "state": "Woj. lodzkie",
    "postcode": "97-500",
    "telephone": "+48 571 303 101"
  },
  {
    "id": "10034929",
    "brand": "shell",
    "name": "7003 BELCHATOW.",
    "lat": 51.351819,
    "lng": 19.375838,
    "address": "ARMII KRAJOWEJ 12",
    "city": "BELCHATOW",
    "state": "Woj. lodzkie",
    "postcode": "97-400",
    "telephone": "+48 571 303 103"
  },
  {
    "id": "12224531",
    "brand": "shell",
    "name": "7851 CZESTOCHOWA AL. WYZWOLENIA",
    "lat": 50.836721,
    "lng": 19.120007,
    "address": "AL. WYZWOLENIA/MICHALOWSKIEGO",
    "city": "CZESTOCHOWA",
    "state": "Woj. slaskie",
    "postcode": "42-200",
    "telephone": "+48 801 440 088"
  },
  {
    "id": "10034915",
    "brand": "shell",
    "name": "5407 JANA PAWLA CZES",
    "lat": 50.817422,
    "lng": 19.131596,
    "address": "JANA PAWLA II 5",
    "city": "CZESTOCHOWA,",
    "state": "Woj. slaskie",
    "postcode": "42-200",
    "telephone": "+48 571 303 088"
  },
  {
    "id": "10034858",
    "brand": "shell",
    "name": "5404 OKULICKIEGO CZE",
    "lat": 50.824593,
    "lng": 19.103001,
    "address": "OKULICKIEGO 20/22",
    "city": "CZESTOCHOWA,",
    "state": "Woj. slaskie",
    "postcode": "42-200",
    "telephone": "+48 571 303 087"
  },
  {
    "id": "10034855",
    "brand": "shell",
    "name": "5401 JANIKOWSK., CZES",
    "lat": 50.782137,
    "lng": 19.135051,
    "address": "JAGIELLONSKA 29/31",
    "city": "CZESTOCHOWA",
    "state": "Woj. slaskie",
    "postcode": "42-200",
    "telephone": "+48 571 303 084"
  },
  {
    "id": "12789491",
    "brand": "shell",
    "name": "5415 CZESTOCH",
    "lat": 50.799682,
    "lng": 19.066659,
    "address": "GLOWNA 114",
    "city": "CZESTOCHOWA",
    "state": "Woj. slaskie",
    "postcode": "42-280",
    "telephone": "+48 793 399 099"
  },
  {
    "id": "10034934",
    "brand": "shell",
    "name": "1117 GORNA PIOTRKOW",
    "lat": 51.406442,
    "lng": 19.68259,
    "address": "GORNA 7",
    "city": "PIOTRKOW TRYBUNALSKI",
    "state": "Woj. lodzkie",
    "postcode": "97-300",
    "telephone": "+48 571 303 095"
  },
  {
    "id": "13052555",
    "brand": "shell",
    "name": "8635 PAMKO PIOTRKOW TRYBUNALSKI",
    "lat": 51.403467,
    "lng": 19.724319,
    "address": "SULEJOWSKA 49A",
    "city": "PIOTRKOW TRYBUNALSKI",
    "state": "Woj. lodzkie",
    "postcode": "97-300",
    "telephone": "+48 692 107 676"
  },
  {
    "id": "10034856",
    "brand": "shell",
    "name": "5402 POCZESNA",
    "lat": 50.717749,
    "lng": 19.152676,
    "address": "WARSZAWSKA 3",
    "city": "POCZESNA",
    "state": "Woj. slaskie",
    "postcode": "42-262",
    "telephone": "+48 571 303 085"
  },
  {
    "id": "10034767",
    "brand": "shell",
    "name": "1131 GREGOR PIOTRKOW.",
    "lat": 51.44124,
    "lng": 19.679817,
    "address": "CALA 45E",
    "city": "PIOTRKOW TRYBUNALSKI",
    "state": "Woj. lodzkie",
    "postcode": "97-300",
    "telephone": "+48 571 303 098"
  },
  {
    "id": "12224662",
    "brand": "shell",
    "name": "7124 LODZ ROKICINSKA",
    "lat": 51.753323,
    "lng": 19.582152,
    "address": "UL. ROKICINSKA 190A",
    "city": "LODZ",
    "state": "Woj. lodzkie",
    "postcode": "92-620",
    "telephone": "+48 571 303 139"
  },
  {
    "id": "10034867",
    "brand": "shell",
    "name": "1106 GEANT LODZ.",
    "lat": 51.763153,
    "lng": 19.498245,
    "address": "PILSUDSKIEGO 98",
    "city": "LODZ",
    "state": "Woj. lodzkie",
    "postcode": "92-202",
    "telephone": "+48 571 303 004"
  },
  {
    "id": "10034766",
    "brand": "shell",
    "name": "1105 PASO LODZ.",
    "lat": 51.748045,
    "lng": 19.488703,
    "address": "MARSZALKA EDWARDA SMIGLEGO-RYDZA 23",
    "city": "LODZ",
    "state": "Woj. lodzkie",
    "postcode": "93-281",
    "telephone": "+48 571 303 114"
  },
  {
    "id": "10034765",
    "brand": "shell",
    "name": "1104 DABROWSKI. LODZ.",
    "lat": 51.735495,
    "lng": 19.505964,
    "address": "GOJAWICZYNSKIEJ 58",
    "city": "LODZ",
    "state": "Woj. lodzkie",
    "postcode": "93-253",
    "telephone": "+48 571 303 112"
  },
  {
    "id": "12224829",
    "brand": "shell",
    "name": "7125 LODZ KILINSKIEGO",
    "lat": 51.75592,
    "lng": 19.470218,
    "address": "UL. KILINSKIEGO 167",
    "city": "LODZ",
    "state": "Woj. lodzkie",
    "postcode": "93-353",
    "telephone": "+48 571 303 387"
  },
  {
    "id": "12224961",
    "brand": "shell",
    "name": "7126 LODZ WLOKNIARZY",
    "lat": 51.768294,
    "lng": 19.425606,
    "address": "AL. WLOKNIARZY 199",
    "city": "LODZ",
    "state": "Woj. lodzkie",
    "postcode": "91-089",
    "telephone": "+48 571 303 347"
  },
  {
    "id": "10056711",
    "brand": "shell",
    "name": "1144 LIMONKA LODZ",
    "lat": 51.793254,
    "lng": 19.418085,
    "address": "LIMANOWSKIEGO 181/185",
    "city": "LODZ",
    "state": "Woj. lodzkie",
    "postcode": "91-027",
    "telephone": "+48 571 303 008"
  },
  {
    "id": "10034868",
    "brand": "shell",
    "name": "1107 LIDO LODZ.",
    "lat": 51.717803,
    "lng": 19.437317,
    "address": "PABIANICKA 174",
    "city": "LODZ",
    "state": "Woj. lodzkie",
    "postcode": "93-418",
    "telephone": "+48 571 303 116"
  },
  {
    "id": "10034869",
    "brand": "shell",
    "name": "1113 JEDYNKA LODZ.",
    "lat": 51.827502,
    "lng": 19.427776,
    "address": "ZGIERSKA 257",
    "city": "LODZ",
    "state": "Woj. lodzkie",
    "postcode": "91-495",
    "telephone": "+48 571 303 118"
  },
  {
    "id": "10034764",
    "brand": "shell",
    "name": "1103 TRAKTOROWA LODZ.",
    "lat": 51.787675,
    "lng": 19.392109,
    "address": "TRAKTOROWA 44",
    "city": "LODZ",
    "state": "Woj. lodzkie",
    "postcode": "91-129",
    "telephone": "+48 571 303 110"
  },
  {
    "id": "10045398",
    "brand": "shell",
    "name": "1127 RZGOW GRAF.",
    "lat": 51.658495,
    "lng": 19.47858,
    "address": "KATOWICKA 69",
    "city": "RZGOW",
    "state": "Woj. lodzkie",
    "postcode": "95-030",
    "telephone": "+48 571 303 096"
  },
  {
    "id": "10050279",
    "brand": "shell",
    "name": "8113 IGNACPOL ZGIERZ",
    "lat": 51.871814,
    "lng": 19.408582,
    "address": "KASPROWICZA 6/8",
    "city": "ZGIERZ",
    "state": "Woj. lodzkie",
    "postcode": "95-100",
    "telephone": "+48 601 879 269"
  },
  {
    "id": "10048175",
    "brand": "shell",
    "name": "1128 CHANEL RZGOW.",
    "lat": 51.645313,
    "lng": 19.490871,
    "address": "KATOWICKA 126",
    "city": "RZGOW",
    "state": "Woj. lodzkie",
    "postcode": "95-030",
    "telephone": "+48 571 303 097"
  },
  {
    "id": "12190368",
    "brand": "shell",
    "name": "1153 A2 NIESULKOW",
    "lat": 51.897596,
    "lng": 19.705338,
    "address": "NOWOSTAWY DOLNE 140",
    "city": "DMOSIN",
    "state": "Woj. lodzkie",
    "postcode": "95-061",
    "telephone": "+48 511 830 354"
  },
  {
    "id": "12190369",
    "brand": "shell",
    "name": "1154 A2 NOWOSTAWY",
    "lat": 51.900201,
    "lng": 19.70812,
    "address": "MOP A2 NOWOSTAWY",
    "city": "STRYKOW",
    "state": "Woj. lodzkie",
    "postcode": "95-010",
    "telephone": "+48 571 303 120"
  },
  {
    "id": "12224660",
    "brand": "shell",
    "name": "7316 KIELCE SOLIDARNOSCI",
    "lat": 50.872303,
    "lng": 20.642027,
    "address": "AL. SOLIDARNIOSCI 2B",
    "city": "KIELCE",
    "state": "Woj. swietokrzyskie",
    "postcode": "25-323",
    "telephone": "+48 571 409 421"
  },
  {
    "id": "10034824",
    "brand": "shell",
    "name": "3502 GRUNWALDZKA KIE.",
    "lat": 50.876293,
    "lng": 20.595299,
    "address": "GRUNWALDZKA 66",
    "city": "KIELCE",
    "state": "Woj. swietokrzyskie",
    "postcode": "25-736",
    "telephone": "+48 571 409 424"
  },
  {
    "id": "10034768",
    "brand": "shell",
    "name": "1201 KIELECKA RADOM",
    "lat": 51.397662,
    "lng": 21.108498,
    "address": "KIELECKA 82",
    "city": "RADOM",
    "state": "Woj. mazowieckie",
    "postcode": "26-600",
    "telephone": "+48 571 409 425"
  },
  {
    "id": "12034239",
    "brand": "shell",
    "name": "1094 SLABOMIERZ",
    "lat": 51.997295,
    "lng": 20.495694,
    "address": "DK 50",
    "city": "SLABOMIERZ",
    "state": "Woj. mazowieckie",
    "postcode": "96-325",
    "telephone": "+48 724 006 565"
  },
  {
    "id": "10034866",
    "brand": "shell",
    "name": "1042 ALBERT.",
    "lat": 52.104518,
    "lng": 20.635777,
    "address": "KROLEWSKA 69",
    "city": "GRODZISK MAZOWIECKI",
    "state": "Woj. mazowieckie",
    "postcode": "05-827",
    "telephone": "+48 511 833 546"
  },
  {
    "id": "10057221",
    "brand": "shell",
    "name": "1093 MAGDALENKA SLON",
    "lat": 52.096352,
    "lng": 20.922361,
    "address": "SLONECZNA",
    "city": "LESZNOWOLA",
    "state": "Woj. mazowieckie",
    "postcode": "05-506",
    "telephone": "+48 511 846 542"
  },
  {
    "id": "12798672",
    "brand": "shell",
    "name": "7120 INSTYTUT",
    "lat": 52.114194,
    "lng": 20.886361,
    "address": "LOGISTYCZNA 4",
    "city": "SEKOCIN STARY",
    "state": "Woj. mazowieckie",
    "postcode": "05-090",
    "telephone": "+48 502 203 846"
  },
  {
    "id": "12224024",
    "brand": "shell",
    "name": "7103 JANKI MSZCZONOWSKA.",
    "lat": 52.132638,
    "lng": 20.892881,
    "address": "MSZCZONOWSKA 10",
    "city": "JANKI",
    "state": "Woj. mazowieckie",
    "postcode": "05-090",
    "telephone": "+48 22 490 40 72"
  },
  {
    "id": "10034861",
    "brand": "shell",
    "name": "1020 AUDI.",
    "lat": 52.07979,
    "lng": 21.034054,
    "address": "ARMII KRAJOWEJ 20",
    "city": "PIASECZNO",
    "state": "Woj. mazowieckie",
    "postcode": "05-500",
    "telephone": "+48 571 303 002"
  },
  {
    "id": "12224850",
    "brand": "shell",
    "name": "7117 PIASECZNO INTER.",
    "lat": 52.083604,
    "lng": 21.037382,
    "address": "UL. OKULICKIEGO 6",
    "city": "PIASECZNO",
    "state": "Woj. mazowieckie",
    "postcode": "05-500",
    "telephone": "+48 571 303 329"
  },
  {
    "id": "10034755",
    "brand": "shell",
    "name": "1003 PRUSZKOW",
    "lat": 52.167421,
    "lng": 20.80612,
    "address": "WOJSKA POLSKIEGO 4",
    "city": "PRUSZKOW",
    "state": "Woj. mazowieckie",
    "postcode": "05-800",
    "telephone": "+48 511 846 134"
  },
  {
    "id": "12487942",
    "brand": "shell",
    "name": "1302 WARSZAWA REGULY",
    "lat": 52.173615,
    "lng": 20.851298,
    "address": "WIEJSKA 11B",
    "city": "REGULY",
    "state": "Woj. mazowieckie",
    "postcode": "05-816",
    "telephone": "+48 512 738 425"
  },
  {
    "id": "12756734",
    "brand": "shell",
    "name": "1090 BLONIE GENERAL",
    "lat": 52.182378,
    "lng": 20.610879,
    "address": "GRODZISKA 56A",
    "city": "BLONIE",
    "state": "Woj. mazowieckie",
    "postcode": "05-870",
    "telephone": "+48 690 606 527"
  },
  {
    "id": "10034756",
    "brand": "shell",
    "name": "1005 BIALY WA",
    "lat": 52.165256,
    "lng": 20.931136,
    "address": "KRAKOWSKA 15",
    "city": "WARSZAWA",
    "state": "Woj. mazowieckie",
    "postcode": "02-183",
    "telephone": "+48 511 846 258"
  },
  {
    "id": "10034919",
    "brand": "shell",
    "name": "6003 PULAWSKA WA",
    "lat": 52.140276,
    "lng": 21.018715,
    "address": "PULAWSKA 437",
    "city": "WARSZAWA",
    "state": "Woj. mazowieckie",
    "postcode": "02-801",
    "telephone": "+48 511 835 093"
  },
  {
    "id": "12224021",
    "brand": "shell",
    "name": "7102 WARSZAWA MEDYK.",
    "lat": 52.142071,
    "lng": 21.016925,
    "address": "PULAWSKA 332",
    "city": "WARSZAWA",
    "state": "Woj. mazowieckie",
    "postcode": "02-819",
    "telephone": "+48 571 303 186"
  },
  {
    "id": "10034862",
    "brand": "shell",
    "name": "1021 INDIRA WA.",
    "lat": 52.145321,
    "lng": 21.036617,
    "address": "RTM. WITOLDA PILECKIEGO 101",
    "city": "WARSZAWA",
    "state": "Woj. mazowieckie",
    "postcode": "02-781",
    "telephone": "+48 511 846 098"
  },
  {
    "id": "10034864",
    "brand": "shell",
    "name": "1024 DREWNY WA",
    "lat": 52.118959,
    "lng": 21.103732,
    "address": "LUKASZA DREWNY 2",
    "city": "WARSZAWA",
    "state": "Woj. mazowieckie",
    "postcode": "02-968",
    "telephone": "+48 502 262 583"
  },
  {
    "id": "10050957",
    "brand": "shell",
    "name": "1209 GOZD STARA B",
    "lat": 51.570735,
    "lng": 21.02029,
    "address": "STARY GOZD 89A",
    "city": "STARA BLOTNICA",
    "state": "Woj. mazowieckie",
    "postcode": "26-806",
    "telephone": "+48 571 409 423"
  },
  {
    "id": "12224002",
    "brand": "shell",
    "name": "7109 WARSZAWA LOPUSZANSKA.",
    "lat": 52.192612,
    "lng": 20.944442,
    "address": "LOPUSZANSKA 45B",
    "city": "WARSZAWA",
    "state": "Woj. mazowieckie",
    "postcode": "02-232",
    "telephone": "+48 513 728 474"
  },
  {
    "id": "10034936",
    "brand": "shell",
    "name": "1120 SKIERNIEWICE.",
    "lat": 51.971749,
    "lng": 20.147139,
    "address": "WYSZYNSKIEGO 4",
    "city": "SKIERNIEWICE",
    "state": "Woj. lodzkie",
    "postcode": "96-100",
    "telephone": "+48 511 834 478"
  },
  {
    "id": "12224027",
    "brand": "shell",
    "name": "7105 WARSZAWA WILANOWSKA.",
    "lat": 52.177703,
    "lng": 21.006698,
    "address": "AL. WILANOWSKA / AL. LOTNIKOW",
    "city": "WARSZAWA",
    "state": "Woj. mazowieckie",
    "postcode": "02-655",
    "telephone": "+48 504 477 546"
  },
  {
    "id": "10034760",
    "brand": "shell",
    "name": "1010 MANGALIA WA",
    "lat": 52.1879,
    "lng": 21.046685,
    "address": "AL. SIKORSKIEGO 22",
    "city": "WARSZAWA",
    "state": "Woj. mazowieckie",
    "postcode": "02-930",
    "telephone": "+48 511 845 929"
  },
  {
    "id": "10034759",
    "brand": "shell",
    "name": "1009 POWSINSKA WA.",
    "lat": 52.188546,
    "lng": 21.061075,
    "address": "POWSINSKA (ROG BONIFACEGO)",
    "city": "WARSZAWA",
    "state": "Woj. mazowieckie",
    "postcode": "02-903",
    "telephone": "+48 511 845 719"
  },
  {
    "id": "10050843",
    "brand": "shell",
    "name": "1210 ZDZARY GUSTAW.",
    "lat": 51.542089,
    "lng": 21.059723,
    "address": "STARE ZDZARY 80A",
    "city": "STARA BLOTNICA",
    "state": "Woj. mazowieckie",
    "postcode": "26-806",
    "telephone": "+48 571 409 422"
  },
  {
    "id": "12096246",
    "brand": "shell",
    "name": "1099 KARCZEW.",
    "lat": 52.086692,
    "lng": 21.259876,
    "address": "BEMA 1",
    "city": "KARCZEW",
    "state": "Woj. mazowieckie",
    "postcode": "05-480",
    "telephone": "+48 509 858 595"
  },
  {
    "id": "10034923",
    "brand": "shell",
    "name": "6007 WAL MIEDZESZ WA.",
    "lat": 52.170704,
    "lng": 21.155056,
    "address": "WAL MIEDZESZYNSKI 219",
    "city": "WARSZAWA",
    "state": "Woj. mazowieckie",
    "postcode": "04-866",
    "telephone": "+48 511 846 113"
  },
  {
    "id": "13013288",
    "brand": "shell",
    "name": "3312 BADON",
    "lat": 49.674053,
    "lng": 21.774264,
    "address": "BIESZCZADZKA 14",
    "city": "KROSNO",
    "state": "Woj. podkarpackie",
    "postcode": "38-400",
    "telephone": "+48 504 571 836"
  },
  {
    "id": "13063809",
    "brand": "shell",
    "name": "8334 OKSEL LESKO",
    "lat": 49.481399,
    "lng": 22.324015,
    "address": "PILSUDSKIEGO 62",
    "city": "LESKO",
    "state": "Woj. podkarpackie",
    "postcode": "38-600",
    "telephone": "+48 13 460 12 86"
  },
  {
    "id": "10054972",
    "brand": "shell",
    "name": "3310 KROSNO.",
    "lat": 49.691856,
    "lng": 21.733789,
    "address": "ZRECINSKA 2A",
    "city": "KROSNO",
    "state": "Woj. podkarpackie",
    "postcode": "38-400",
    "telephone": "+48 513 528 736"
  },
  {
    "id": "12717627",
    "brand": "shell",
    "name": "8335  OLSZANICA. GRANICA.",
    "lat": 49.472153,
    "lng": 22.426785,
    "address": "OLSZANICA 5A",
    "city": "OLSZANICA",
    "state": "Woj. podkarpackie",
    "postcode": "38-722",
    "telephone": "+48 13 461 75 03"
  },
  {
    "id": "13002279",
    "brand": "shell",
    "name": "8338 GROSAR JASLO",
    "lat": 49.75879,
    "lng": 21.51491,
    "address": "BIESZCZADZKA 25",
    "city": "JASLO",
    "state": "Woj. podkarpackie",
    "postcode": "38-200",
    "telephone": "+48 13 446 80 86"
  },
  {
    "id": "12795621",
    "brand": "shell",
    "name": "8332 ARTOS WIDELKA",
    "lat": 50.20783,
    "lng": 21.827072,
    "address": "KUPNO 497",
    "city": "WIDELKA",
    "state": "Woj. podkarpackie",
    "postcode": "36-145",
    "telephone": "+48 660 759 720"
  },
  {
    "id": "10048195",
    "brand": "shell",
    "name": "8331 SLOW MIELEC",
    "lat": 50.28362,
    "lng": 21.429656,
    "address": "WOJSLAWSKA 1A",
    "city": "MIELEC",
    "state": "Woj. podkarpackie",
    "postcode": "39-300",
    "telephone": "+48 17 586 39 56"
  },
  {
    "id": "10034956",
    "brand": "shell",
    "name": "3306 DEBICA",
    "lat": 50.055743,
    "lng": 21.453863,
    "address": "DEBICA-NAGAWCZYNA",
    "city": "DEBICA-NAGAWCZYNA",
    "state": "Woj. podkarpackie",
    "postcode": "39-200",
    "telephone": "+48 511 843 147"
  },
  {
    "id": "10034818",
    "brand": "shell",
    "name": "3202 KRAKOWSKA RZESZ.",
    "lat": 50.052232,
    "lng": 21.971627,
    "address": "KRAKOWSKA 28",
    "city": "RZESZOW",
    "state": "Woj. podkarpackie",
    "postcode": "35-111",
    "telephone": "+48 511 813 925"
  },
  {
    "id": "10053931",
    "brand": "shell",
    "name": "3205 LUBELSKA RZESZ",
    "lat": 50.050883,
    "lng": 22.002525,
    "address": "LUBELSKA 4A",
    "city": "RZESZOW",
    "state": "Woj. podkarpackie",
    "postcode": "35-241",
    "telephone": "+48 511 812 237"
  },
  {
    "id": "10034819",
    "brand": "shell",
    "name": "3203 PZM AWAL RZESZ.",
    "lat": 50.042635,
    "lng": 21.990458,
    "address": "KRAKOWSKA 4B",
    "city": "RZESZOW",
    "state": "Woj. podkarpackie",
    "postcode": "35-210",
    "telephone": "+48 511 813 253"
  },
  {
    "id": "12860048",
    "brand": "shell",
    "name": "8362 KLIMONTOW",
    "lat": 50.64968,
    "lng": 21.45813,
    "address": "UL. SLONECZNA 1",
    "city": "KLIMONTOW",
    "state": "Woj. swietokrzyskie",
    "postcode": "27-640",
    "telephone": "+48 728 887 774"
  },
  {
    "id": "10034817",
    "brand": "shell",
    "name": "3201 HETMANSKA RZESZ.",
    "lat": 50.020622,
    "lng": 21.993672,
    "address": "HETMANSKA 46",
    "city": "RZESZOW",
    "state": "Woj. podkarpackie",
    "postcode": "35-078",
    "telephone": "+48 511 812 237"
  },
  {
    "id": "12852850",
    "brand": "shell",
    "name": "8336 ARTEL OLESZYCE",
    "lat": 50.16703,
    "lng": 23.049101,
    "address": "JOZEFA SAPIEHY 11",
    "city": "OLESZYCE",
    "state": "Woj. podkarpackie",
    "postcode": "37-630",
    "telephone": "+48 504 803 343"
  },
  {
    "id": "12883790",
    "brand": "shell",
    "name": "8337 ARTEL SZOWSKO",
    "lat": 50.030692,
    "lng": 22.713825,
    "address": "KSIAZAT CZARTORYSKICH 27",
    "city": "SZOWSKO",
    "state": "Woj. podkarpackie",
    "postcode": "37-500",
    "telephone": "+48 504 803 343"
  },
  {
    "id": "10034773",
    "brand": "shell",
    "name": "1502 BILGORAJ.",
    "lat": 50.516391,
    "lng": 22.716365,
    "address": "TARNOGRODZKA 49",
    "city": "BILGORAJ",
    "state": "Woj. lubelskie",
    "postcode": "23-400",
    "telephone": "+48 511 793 189"
  },
  {
    "id": "10034772",
    "brand": "shell",
    "name": "1409 KRASNIK",
    "lat": 50.929749,
    "lng": 22.25348,
    "address": "KOLEJOWA 1",
    "city": "KRASNIK",
    "state": "Woj. lubelskie",
    "postcode": "23-200",
    "telephone": "+48 511 835 109"
  },
  {
    "id": "13027491",
    "brand": "shell",
    "name": "8105 ZELECHOW",
    "lat": 51.809839,
    "lng": 21.88868,
    "address": "DLUGA 77",
    "city": "ZELECHOW",
    "state": "Woj. mazowieckie",
    "postcode": "08-430",
    "telephone": "+48 25 754 11 72"
  },
  {
    "id": "10056855",
    "brand": "shell",
    "name": "1086 GARWOLIN STACYJNA",
    "lat": 51.912212,
    "lng": 21.601425,
    "address": "TRAKT LWOWSKI 160",
    "city": "GARWOLIN",
    "state": "Woj. mazowieckie",
    "postcode": "08-410",
    "telephone": "+48 571 303 138"
  },
  {
    "id": "12851449",
    "brand": "shell",
    "name": "1421 MOP SARNY",
    "lat": 51.59007,
    "lng": 21.984077,
    "address": "SIERSKOWOLA 130",
    "city": "SIERSKOWOLA",
    "state": "Woj. lubelskie",
    "postcode": "08-500",
    "telephone": "+48 503 418 759"
  },
  {
    "id": "10034917",
    "brand": "shell",
    "name": "6001 SIEDLCE.",
    "lat": 52.162047,
    "lng": 22.287745,
    "address": "BRZESKA 43",
    "city": "SIEDLCE",
    "state": "Woj. mazowieckie",
    "postcode": "08-110",
    "telephone": "+48 571 303 013"
  },
  {
    "id": "10057077",
    "brand": "shell",
    "name": "8142 GORNIK",
    "lat": 51.298154,
    "lng": 22.893995,
    "address": "CHELMSKA 61",
    "city": "LECZNA",
    "state": "Woj. lubelskie",
    "postcode": "21-010",
    "telephone": "+48 81 752 12 04"
  },
  {
    "id": "12017316",
    "brand": "shell",
    "name": "1418 CHELM JORDANA",
    "lat": 51.133885,
    "lng": 23.463698,
    "address": "JORDANA 25",
    "city": "CHELM",
    "state": "Woj. lubelskie",
    "postcode": "22-100",
    "telephone": "+48 571 303 129"
  },
  {
    "id": "12885696",
    "brand": "shell",
    "name": "8131 NEPTUN LUBLIN",
    "lat": 51.243503,
    "lng": 22.630876,
    "address": "METALURGICZNA 1C",
    "city": "LUBLIN",
    "state": "Woj. lubelskie",
    "postcode": "20-234",
    "telephone": "+48 81 311 00 20"
  },
  {
    "id": "10054684",
    "brand": "shell",
    "name": "1504 ZAMOSC JP HETMA.",
    "lat": 50.710175,
    "lng": 23.285244,
    "address": "JANA PAWLA II 6A",
    "city": "ZAMOSC",
    "state": "Woj. lubelskie",
    "postcode": "22-400",
    "telephone": "+48 514 991 295"
  },
  {
    "id": "10034771",
    "brand": "shell",
    "name": "1401 LUBLIN PZMOT.",
    "lat": 51.253504,
    "lng": 22.562339,
    "address": "B PRUSA 8 A",
    "city": "LUBLIN",
    "state": "Woj. lubelskie",
    "postcode": "20-064",
    "telephone": "+48 511 828 841"
  },
  {
    "id": "10034870",
    "brand": "shell",
    "name": "1402 SPOLDZIEL. LUB",
    "lat": 51.26458,
    "lng": 22.573417,
    "address": "SPOLDZIELCZOSCI PRACY 43",
    "city": "LUBLIN",
    "state": "Woj. lubelskie",
    "postcode": "20-147",
    "telephone": "+48 511 829 016"
  },
  {
    "id": "10034770",
    "brand": "shell",
    "name": "1301 TEREBELSKA",
    "lat": 52.049426,
    "lng": 23.108122,
    "address": "TEREBELSKA 75",
    "city": "BIALA PODLASKA",
    "state": "Woj. lubelskie",
    "postcode": "21-500",
    "telephone": "+48 571 450 034"
  },
  {
    "id": "12789366",
    "brand": "shell",
    "name": "8661 PAJERO HORBOW",
    "lat": 52.034435,
    "lng": 23.31943,
    "address": "HORBOW KOLONIA 29C",
    "city": "HORBOW",
    "state": "Woj. lubelskie",
    "postcode": "21-512",
    "telephone": "+48 83 375 71 47"
  },
  {
    "id": "10054134",
    "brand": "shell",
    "name": "8140 JAWOR",
    "lat": 51.75169,
    "lng": 22.564137,
    "address": "PASZKI MALE 77A",
    "city": "RADZYN PODLASKI",
    "state": "Woj. lubelskie",
    "postcode": "21-300",
    "telephone": "+48 83 352 72 79"
  },
  {
    "id": "10054850",
    "brand": "shell",
    "name": "1083 GOSTYNIN WEST",
    "lat": 52.436608,
    "lng": 19.505052,
    "address": "LEGARDA (KIERUNEK PLOCK) 15B",
    "city": "GOSTYNIN",
    "state": "Woj. mazowieckie",
    "postcode": "09-500",
    "telephone": "+48 662 575 559"
  },
  {
    "id": "10054849",
    "brand": "shell",
    "name": "1084 GOSTYNIN EAST",
    "lat": 52.436567,
    "lng": 19.507041,
    "address": "LEGARDA 15a",
    "city": "GOSTYNIN",
    "state": "Woj. mazowieckie",
    "postcode": "09-500",
    "telephone": "+48 662 569 899"
  },
  {
    "id": "10034791",
    "brand": "shell",
    "name": "2901 KRAJ KUTNO.",
    "lat": 52.2311,
    "lng": 19.365101,
    "address": "PAPIEZA JANA PAWLA II 1B",
    "city": "KUTNO",
    "state": "Woj. lodzkie",
    "postcode": "99-300",
    "telephone": "+48 511 830 443"
  },
  {
    "id": "12193367",
    "brand": "shell",
    "name": "1152 KUTNO.",
    "lat": 52.218883,
    "lng": 19.462452,
    "address": "KASZEWY KOSCIELNE 23A",
    "city": "KASZEWY KOSCIELNE",
    "state": "Woj. lodzkie",
    "postcode": "99-314",
    "telephone": "+48 571 303 436"
  },
  {
    "id": "12071885",
    "brand": "shell",
    "name": "1218 PLOCK",
    "lat": 52.556384,
    "lng": 19.694537,
    "address": "PRZEMYSLOWA 5",
    "city": "PLOCK",
    "state": "Woj. mazowieckie",
    "postcode": "09-400",
    "telephone": "+48 571 303 431"
  },
  {
    "id": "10045392",
    "brand": "shell",
    "name": "8295 TOYOTA OKREZNA.",
    "lat": 52.652162,
    "lng": 19.082787,
    "address": "OKREZNA 2",
    "city": "WLOCLAWEK",
    "state": "Woj. kujawsko-pomors",
    "postcode": "87-810",
    "telephone": "+48 54 232 64 36"
  },
  {
    "id": "10048191",
    "brand": "shell",
    "name": "8241 EUROGAZ",
    "lat": 53.245798,
    "lng": 19.39781,
    "address": "PODGORNA 27",
    "city": "BRODNICA",
    "state": "Woj. kujawsko-pomors",
    "postcode": "87-300",
    "telephone": "+48 601 838 784"
  },
  {
    "id": "12710441",
    "brand": "shell",
    "name": "8629 BORPAL_CZERNIKOWO",
    "lat": 52.941564,
    "lng": 18.957442,
    "address": "TORUNSKA 1",
    "city": "CZERNIKOWO",
    "state": "Woj. kujawsko-pomors",
    "postcode": "87-640",
    "telephone": "+48 500 102 466"
  },
  {
    "id": "12224853",
    "brand": "shell",
    "name": "7119 LEGIONOWO ZEGRZYNSKA",
    "lat": 52.402548,
    "lng": 20.947882,
    "address": "UL. ZEGRZYNSKA 4A",
    "city": "LEGIONOWO",
    "state": "Woj. mazowieckie",
    "postcode": "05-119",
    "telephone": "+48 571 303 126"
  },
  {
    "id": "10034761",
    "brand": "shell",
    "name": "1013 LEGIONOWO.",
    "lat": 52.39107,
    "lng": 20.932093,
    "address": "WARSZAWSKA 68",
    "city": "LEGIONOWO",
    "state": "Woj. mazowieckie",
    "postcode": "05-120",
    "telephone": "+48 511 816 549"
  },
  {
    "id": "13018407",
    "brand": "shell",
    "name": "8186 SEROCK",
    "lat": 52.521301,
    "lng": 21.070434,
    "address": "UL. PULTUSKA 112",
    "city": "SEROCK",
    "state": "Woj. mazowieckie",
    "postcode": "05-140",
    "telephone": "+48 22 782 74 94"
  },
  {
    "id": "12224847",
    "brand": "shell",
    "name": "7116 NIEPORET NOWOLIPIE.",
    "lat": 52.432032,
    "lng": 21.03811,
    "address": "UL. WOJSKA POLSKIEGO 1",
    "city": "NIEPORET",
    "state": "Woj. mazowieckie",
    "postcode": "05-126",
    "telephone": "+48 511 822 541"
  },
  {
    "id": "10054683",
    "brand": "shell",
    "name": "1064 NIEPORET LAJON.",
    "lat": 52.364783,
    "lng": 21.027456,
    "address": "PLOCHOCINSKA 201",
    "city": "NIEPORET",
    "state": "Woj. mazowieckie",
    "postcode": "03-044",
    "telephone": "+48 511 822 980"
  },
  {
    "id": "10034932",
    "brand": "shell",
    "name": "1031 SOKRATESA WA.",
    "lat": 52.284775,
    "lng": 20.927699,
    "address": "SOKRATESA 11",
    "city": "WARSZAWA",
    "state": "Woj. mazowieckie",
    "postcode": "01-909",
    "telephone": "+48 511 826 648"
  },
  {
    "id": "13018397",
    "brand": "shell",
    "name": "8187 RADZYMIN",
    "lat": 52.421624,
    "lng": 21.1845,
    "address": "UL WYSZYNSKIEGO 3",
    "city": "RADZYMIN",
    "state": "Woj. mazowieckie",
    "postcode": "05-250",
    "telephone": "+48 22 786 73 80"
  },
  {
    "id": "12224124",
    "brand": "shell",
    "name": "7106 WARSZAWA ARMII KRAJOWEJ",
    "lat": 52.278652,
    "lng": 20.975564,
    "address": "UL. ARMII KRAJOWEJ 10",
    "city": "WARSZAWA",
    "state": "Woj. mazowieckie",
    "postcode": "01-783",
    "telephone": "+48 511 823 325"
  },
  {
    "id": "10034758",
    "brand": "shell",
    "name": "1008 LABISZYNSKA WA.",
    "lat": 52.298301,
    "lng": 21.032421,
    "address": "LABISZYNSKA 27",
    "city": "WARSZAWA",
    "state": "Woj. mazowieckie",
    "postcode": "03-204",
    "telephone": "+48 511 822 469"
  },
  {
    "id": "12224658",
    "brand": "shell",
    "name": "7112 WARSZAWA TORUNSKA",
    "lat": 52.305167,
    "lng": 21.052052,
    "address": "UL. OSTRODZKA 50",
    "city": "WARSZAWA",
    "state": "Woj. mazowieckie",
    "postcode": "03-289",
    "telephone": "+48 571 303 479"
  },
  {
    "id": "12224530",
    "brand": "shell",
    "name": "7111 WARSZAWA GLEBOCKA.",
    "lat": 52.301631,
    "lng": 21.056333,
    "address": "UL.GLEBOCKA 13A",
    "city": "WARSZAWA",
    "state": "Woj. mazowieckie",
    "postcode": "03-287",
    "telephone": "+48 571 303 584"
  },
  {
    "id": "10034757",
    "brand": "shell",
    "name": "1006 MARKI.",
    "lat": 52.304709,
    "lng": 21.090472,
    "address": "PILSUDSKIEGO 2",
    "city": "MARKI",
    "state": "Woj. mazowieckie",
    "postcode": "05-270",
    "telephone": "+48 511 835 340"
  },
  {
    "id": "10034860",
    "brand": "shell",
    "name": "1019 ODROWAZA WA.",
    "lat": 52.274676,
    "lng": 21.030015,
    "address": "ODROWAZA 7A",
    "city": "WARSZAWA",
    "state": "Woj. mazowieckie",
    "postcode": "03-310",
    "telephone": "+48 506 808 055"
  },
  {
    "id": "12224026",
    "brand": "shell",
    "name": "7108 WARSZAWA JAGIELLONSKA",
    "lat": 52.269328,
    "lng": 21.019418,
    "address": "JAGIELLONSKA 78",
    "city": "WARSZAWA",
    "state": "Woj. mazowieckie",
    "postcode": "03-301",
    "telephone": "+48 571 303 562"
  },
  {
    "id": "12017308",
    "brand": "shell",
    "name": "1098 LAZUROWA WARSZAWA",
    "lat": 52.230856,
    "lng": 20.896081,
    "address": "LAZUROWA 73",
    "city": "WARSZAWA",
    "state": "Woj. mazowieckie",
    "postcode": "01-314",
    "telephone": "+48 511 825 786"
  },
  {
    "id": "10034754",
    "brand": "shell",
    "name": "1002 STAWKI WA.",
    "lat": 52.250725,
    "lng": 20.982089,
    "address": "STAWKI 42",
    "city": "WARSZAWA",
    "state": "Woj. mazowieckie",
    "postcode": "01-040",
    "telephone": "+48 511 825 418"
  },
  {
    "id": "10034863",
    "brand": "shell",
    "name": "1023 PERI PLOCHOCIN.",
    "lat": 52.21163,
    "lng": 20.732961,
    "address": "POZNANSKA 377",
    "city": "PLOCHOCIN",
    "state": "Woj. mazowieckie",
    "postcode": "05-850",
    "telephone": "+48 511 846 429"
  },
  {
    "id": "12224844",
    "brand": "shell",
    "name": "7115 WARSZAWA LODYGOWA",
    "lat": 52.286167,
    "lng": 21.086917,
    "address": "UL. LODYGOWA 28",
    "city": "WARSZAWA",
    "state": "Woj. mazowieckie",
    "postcode": "03-687",
    "telephone": "+48 571 303 228"
  },
  {
    "id": "10034925",
    "brand": "shell",
    "name": "6009 WOLSKA WA",
    "lat": 52.222963,
    "lng": 20.930693,
    "address": "WOLSKA 195",
    "city": "WARSZAWA",
    "state": "Woj. mazowieckie",
    "postcode": "01-258",
    "telephone": "+48 511 828 389"
  },
  {
    "id": "12987937",
    "brand": "shell",
    "name": "7701 SHELL CAFE",
    "lat": 52.231778,
    "lng": 20.977833,
    "address": "KAROLKOWA 30",
    "city": "WARSZAWA",
    "state": "Woj. mazowieckie",
    "postcode": "01-207",
    "telephone": "+48 571 700 138"
  },
  {
    "id": "10054973",
    "brand": "shell",
    "name": "8291 MARSZEL",
    "lat": 52.881807,
    "lng": 20.644152,
    "address": "PULTUSKA 65",
    "city": "CIECHANOW",
    "state": "Woj. mazowieckie",
    "postcode": "06-400",
    "telephone": "+48 23 672 21 37"
  },
  {
    "id": "12224013",
    "brand": "shell",
    "name": "7107 WARSZAWA JEROZOLIMSKIE",
    "lat": 52.211411,
    "lng": 20.95005,
    "address": "AL. JEROZOLIMSKIE 152",
    "city": "WARSZAWA",
    "state": "Woj. mazowieckie",
    "postcode": "02-326",
    "telephone": "+48 571 303 241"
  },
  {
    "id": "12224843",
    "brand": "shell",
    "name": "7114 WAW TRAKTORZYSTOW.",
    "lat": 52.199254,
    "lng": 20.892049,
    "address": "UL. TRAKTORZYSTOW 12",
    "city": "WARSZAWA",
    "state": "Woj. mazowieckie",
    "postcode": "02-495",
    "telephone": "+48 503 862 051"
  },
  {
    "id": "12224852",
    "brand": "shell",
    "name": "7118 WARSZAWA KLESZCZOWA",
    "lat": 52.198145,
    "lng": 20.918963,
    "address": "UL. KLESZCZOWA 24",
    "city": "WARSZAWA",
    "state": "Woj. mazowieckie",
    "postcode": "02-485",
    "telephone": "+48 571 303 245"
  },
  {
    "id": "10045341",
    "brand": "shell",
    "name": "1055 KOBYLKA.",
    "lat": 52.335113,
    "lng": 21.22247,
    "address": "NADARZYNSKA 5",
    "city": "KOBYLKA",
    "state": "Woj. mazowieckie",
    "postcode": "05-230",
    "telephone": "+48 511 835 341"
  },
  {
    "id": "10034753",
    "brand": "shell",
    "name": "1001 OSTROBRAMSKA WA.",
    "lat": 52.232382,
    "lng": 21.115094,
    "address": "OSTROBRAMSKA 69",
    "city": "WARSZAWA",
    "state": "Woj. mazowieckie",
    "postcode": "04-175",
    "telephone": "+48 511 845 477"
  },
  {
    "id": "12224833",
    "brand": "shell",
    "name": "7113 WARSZAWA KORKOWA",
    "lat": 52.233504,
    "lng": 21.1301,
    "address": "UL. KORKOWA 2",
    "city": "WARSZAWA",
    "state": "Woj. mazowieckie",
    "postcode": "04-501",
    "telephone": "+48 571 303 298"
  },
  {
    "id": "10051699",
    "brand": "shell",
    "name": "1059 RUGBY.",
    "lat": 52.209751,
    "lng": 20.251724,
    "address": "ZYRARDOWSKA 47",
    "city": "SOCHACZEW",
    "state": "Woj. mazowieckie",
    "postcode": "96-500",
    "telephone": "+48 571 303 124"
  },
  {
    "id": "10045338",
    "brand": "shell",
    "name": "1709 WITRAMOWO.",
    "lat": 53.481111,
    "lng": 20.320296,
    "address": "WITRAMOWO 30",
    "city": "OLSZTYNEK",
    "state": "Woj. warminsko-maz.",
    "postcode": "11-015",
    "telephone": "+48 514 896 543"
  },
  {
    "id": "10034872",
    "brand": "shell",
    "name": "2013 NOWA HOLANDIA.",
    "lat": 54.137119,
    "lng": 19.4138,
    "address": "NOWE POLE 1C",
    "city": "ELBLAG",
    "state": "Woj. warminsko-maz.",
    "postcode": "82-310",
    "telephone": "+48 511 830 469"
  },
  {
    "id": "12224011",
    "brand": "shell",
    "name": "7200 ELBLAG SOPOCKA",
    "lat": 54.155144,
    "lng": 19.398205,
    "address": "AL. TYSIACLECIA / SOPOCKA",
    "city": "ELBLAG",
    "state": "Woj. warminsko-maz.",
    "postcode": "82-300",
    "telephone": "+48 514 867 467"
  },
  {
    "id": "10034786",
    "brand": "shell",
    "name": "2301 DABKA ELBLAG.",
    "lat": 54.17891,
    "lng": 19.405594,
    "address": "PULKOWNIKA DABKA 132",
    "city": "ELBLAG",
    "state": "Woj. warminsko-maz.",
    "postcode": "82-300",
    "telephone": "+48 511 831 249"
  },
  {
    "id": "12224645",
    "brand": "shell",
    "name": "7204 MALBORK CARGO.",
    "lat": 54.036336,
    "lng": 19.044785,
    "address": "UL. WOJSKA POLSKIEGO 10",
    "city": "MALBORK",
    "state": "Woj. pomorskie",
    "postcode": "82-200",
    "telephone": "+48 571 303 128"
  },
  {
    "id": "12793119",
    "brand": "shell",
    "name": "2020 TUGA",
    "lat": 54.213011,
    "lng": 19.10514,
    "address": "WARSZAWSKA 2M",
    "city": "NOWY DWOR GDANSKI",
    "state": "Woj. pomorskie",
    "postcode": "82-100",
    "telephone": "+48 451 154 999"
  },
  {
    "id": "10034939",
    "brand": "shell",
    "name": "2402 SPORTOWA.",
    "lat": 53.72255,
    "lng": 18.93199,
    "address": "SPORTOWA 4",
    "city": "KWIDZYN",
    "state": "Woj. pomorskie",
    "postcode": "82-500",
    "telephone": "+48 571 303 226"
  },
  {
    "id": "10045400",
    "brand": "shell",
    "name": "1708 OSTRODA.",
    "lat": 53.70899,
    "lng": 19.978622,
    "address": "PLEBISCYTOWA 3",
    "city": "OSTRODA",
    "state": "Woj. warminsko-maz.",
    "postcode": "14-100",
    "telephone": "+48 514 896 565"
  },
  {
    "id": "10034937",
    "brand": "shell",
    "name": "1704 WILCZYNSKA OLSZ.",
    "lat": 53.739752,
    "lng": 20.4877,
    "address": "WILCZYNSKIEGO 31",
    "city": "OLSZTYN",
    "state": "Woj. warminsko-maz.",
    "postcode": "10-686",
    "telephone": "+48 514 876 565"
  },
  {
    "id": "13018395",
    "brand": "shell",
    "name": "8174 PZM OLSZTYN",
    "lat": 53.771427,
    "lng": 20.444205,
    "address": "UL. SIELSKA 5",
    "city": "OLSZTYN",
    "state": "Woj. warminsko-maz.",
    "postcode": "10-801",
    "telephone": "+48 89 522 72 18"
  },
  {
    "id": "12872259",
    "brand": "shell",
    "name": "8333 SAKO WOJTOWO",
    "lat": 53.785673,
    "lng": 20.587367,
    "address": "MODRZEWIOWA 4",
    "city": "WOJTOWO",
    "state": "Woj. warminsko-maz.",
    "postcode": "11-010",
    "telephone": "+48 608 595 800"
  },
  {
    "id": "12730113",
    "brand": "shell",
    "name": "6015 TRZCINA",
    "lat": 52.647763,
    "lng": 21.554853,
    "address": "95 m. TRZCIANKA",
    "city": "TRZCIANKA",
    "state": "Woj. mazowieckie",
    "postcode": "07-221",
    "telephone": "+48 451 174 281"
  },
  {
    "id": "10056721",
    "brand": "shell",
    "name": "8124 ROZA",
    "lat": 52.895456,
    "lng": 21.39441,
    "address": "KOSCIUSZKI 59",
    "city": "ROZAN",
    "state": "Woj. mazowieckie",
    "postcode": "06-230",
    "telephone": "+48 29 766 94 69"
  },
  {
    "id": "10054137",
    "brand": "shell",
    "name": "8107 KALUSZYN.",
    "lat": 52.21066,
    "lng": 21.829206,
    "address": "WARSZAWSKA 2",
    "city": "KALUSZYN",
    "state": "Woj. mazowieckie",
    "postcode": "05-310",
    "telephone": "+48 25 757 65 99"
  },
  {
    "id": "10054859",
    "brand": "shell",
    "name": "1068 KONIK",
    "lat": 52.210496,
    "lng": 21.338682,
    "address": "DUCHNOW, SZOSA MINSKA 42",
    "city": "WIAZOWNA",
    "state": "Woj. mazowieckie",
    "postcode": "05-462",
    "telephone": "+48 509 734 333"
  },
  {
    "id": "12766863",
    "brand": "shell",
    "name": "8183 MALY PLOCK",
    "lat": 53.32043,
    "lng": 22.01825,
    "address": "JANA KOCHANOWSKIEGO 33",
    "city": "MALY PLOCK",
    "state": "Woj. podlaskie",
    "postcode": "18-516",
    "telephone": "+48 532 600 361"
  },
  {
    "id": "12064051",
    "brand": "shell",
    "name": "8179 PATER",
    "lat": 52.397741,
    "lng": 22.871618,
    "address": "11 LISTOPADA 247A",
    "city": "SIEMIATYCZE",
    "state": "Woj. podlaskie",
    "postcode": "17-300",
    "telephone": "+48 85 655 64 01"
  },
  {
    "id": "12853264",
    "brand": "shell",
    "name": "6014 NAREW",
    "lat": 53.159972,
    "lng": 23.001778,
    "address": "WARSZAWSKA 72",
    "city": "CHOROSZCZ",
    "state": "Woj. podlaskie",
    "postcode": "16-070",
    "telephone": "+48 885 635 200"
  },
  {
    "id": "10034774",
    "brand": "shell",
    "name": "1601 SKLADOWA BIALY.",
    "lat": 53.117636,
    "lng": 23.127224,
    "address": "SKLADOWA 9",
    "city": "BIALYSTOK",
    "state": "Woj. podlaskie",
    "postcode": "15-399",
    "telephone": "+48 511 846 549"
  },
  {
    "id": "10034927",
    "brand": "shell",
    "name": "6011 1000-LECIA BIAL.",
    "lat": 53.15789,
    "lng": 23.15222,
    "address": "1000-LECIA P.POL. 72",
    "city": "BIALYSTOK",
    "state": "Woj. podlaskie",
    "postcode": "15-111",
    "telephone": "+48 511 846 961"
  },
  {
    "id": "10054680",
    "brand": "shell",
    "name": "1603 BRANICKI. BIALY",
    "lat": 53.125324,
    "lng": 23.18408,
    "address": "BRANICKIEGO",
    "city": "BIALYSTOK",
    "state": "Woj. podlaskie",
    "postcode": "15-085",
    "telephone": "+48 511 846 734"
  },
  {
    "id": "12773113",
    "brand": "shell",
    "name": "8660 WIMEX BIALYSTOK",
    "lat": 53.142696,
    "lng": 23.194939,
    "address": "UL. GEN. STANISLAWA SOSABOWSKIEG 25",
    "city": "BIALYSTOK",
    "state": "Woj. podlaskie",
    "postcode": "15-182",
    "telephone": "+48 85 651 01 83"
  },
  {
    "id": "10045340",
    "brand": "shell",
    "name": "6012 HESSO-RADULE.",
    "lat": 53.143872,
    "lng": 22.793642,
    "address": "RADULE 90",
    "city": "TYKOCIN",
    "state": "Woj. podlaskie",
    "postcode": "16-080",
    "telephone": "+48 514 849 749"
  },
  {
    "id": "12996217",
    "brand": "shell",
    "name": "8305 MURBET",
    "lat": 53.83256,
    "lng": 22.3922,
    "address": "PRZEMYSLOWA 3",
    "city": "ELK",
    "state": "Woj. warminsko-maz.",
    "postcode": "19-300",
    "telephone": "+48 87 520 30 89"
  },
  {
    "id": "10054141",
    "brand": "shell",
    "name": "8173 MARGOS OLECKO",
    "lat": 54.036992,
    "lng": 22.493323,
    "address": "WOJSKA POLSKIEGO 12",
    "city": "OLECKO",
    "state": "Woj. warminsko-maz.",
    "postcode": "19-400",
    "telephone": "+48 87 520 42 95"
  },
  {
    "id": "10034879",
    "brand": "shell",
    "name": "2801 WOLF KETRZYN.",
    "lat": 54.076425,
    "lng": 21.401002,
    "address": "MAZOWIECKA 17",
    "city": "KETRZYN",
    "state": "Woj. warminsko-maz.",
    "postcode": "11-400",
    "telephone": "+48 514 849 393"
  },
  {
    "id": "12828845",
    "brand": "shell",
    "name": "6013 KOSZALEK",
    "lat": 54.051262,
    "lng": 22.895066,
    "address": "DUBOWO-DRUGIE 41",
    "city": "SUWALKI",
    "state": "Woj. podlaskie",
    "postcode": "16-402",
    "telephone": "+48 502 444 135"
  },
  {
    "id": "10034922",
    "brand": "shell",
    "name": "6006 SUWALKI",
    "lat": 54.118457,
    "lng": 22.938846,
    "address": "PULASKIEGO 28",
    "city": "SUWALKI",
    "state": "Woj. podlaskie",
    "postcode": "16-400",
    "telephone": "+48 507 412 040"
  },
  {
    "id": "10054848",
    "brand": "shell",
    "name": "1608 AUGUSTOW",
    "lat": 53.827778,
    "lng": 22.94988,
    "address": "WOJSKA POLSKIEGO 74",
    "city": "AUGUSTOW",
    "state": "Woj. podlaskie",
    "postcode": "16-300",
    "telephone": "+48 507 412 032"
  }
]
